weather,base,visibility,dt,timezone,id,name,cod,coord.lon,coord.lat,main.temp,main.feels_like,main.temp_min,main.temp_max,main.pressure,main.humidity,wind.speed,wind.deg,wind.gust,clouds.all,sys.type,sys.id,sys.country,sys.sunrise,sys.sunset,rain.1h,main.sea_level,main.grnd_level,message
"[{'id': 803, 'main': 'Clouds', 'description': 'broken clouds', 'icon': '04n'}]",stations,10000.0,1627737280.0,36000.0,2163355.0,Hobart,200,147.3294,-42.8794,283.19,282.18,280.52,284.41,995.0,74.0,0.45,0.0,1.34,75.0,2.0,2002195.0,AU,1627680216.0,1627715423.0,,,,
"[{'id': 500, 'main': 'Rain', 'description': 'light rain', 'icon': '10n'}]",stations,10000.0,1627737540.0,46800.0,4032243.0,Vaini,200,-175.2,-21.2,296.24,296.9,296.24,296.24,1006.0,88.0,5.66,270.0,,90.0,1.0,7285.0,TO,1627841517.0,1627881727.0,0.15,,,
"[{'id': 804, 'main': 'Clouds', 'description': 'overcast clouds', 'icon': '04d'}]",stations,10000.0,1627737541.0,3600.0,2738381.0,Lata,200,-8.3327,40.1629,292.87,291.84,292.07,297.62,1018.0,36.0,7.16,312.0,7.9,100.0,2.0,2013564.0,PT,1627709423.0,1627760933.0,,1018.0,998.0,
"[{'id': 803, 'main': 'Clouds', 'description': 'broken clouds', 'icon': '04n'}]",stations,10000.0,1627737541.0,43200.0,2110227.0,Butaritari,200,172.7902,3.0707,299.85,302.01,299.85,299.85,1011.0,77.0,1.38,67.0,1.46,58.0,,,KI,1627756056.0,1627800158.0,,1011.0,1010.0,
"[{'id': 800, 'main': 'Clear', 'description': 'clear sky', 'icon': '01d'}]",stations,10000.0,1627737352.0,14400.0,935214.0,Saint-Pierre,200,55.4781,-21.3393,296.03,296.12,295.95,296.09,1024.0,67.0,13.89,120.0,,0.0,1.0,2127.0,RE,1627699813.0,1627739914.0,,,,
"[{'id': 804, 'main': 'Clouds', 'description': 'overcast clouds', 'icon': '04n'}]",stations,10000.0,1627737541.0,43200.0,2206939.0,Bluff,200,168.3333,-46.6,281.37,280.12,281.37,281.37,1011.0,95.0,2.17,139.0,2.32,100.0,2.0,2008959.0,NZ,1627762101.0,1627796253.0,,1011.0,1008.0,
,,,,,,,404,,,,,,,,,,,,,,,,,,,,,city not found
"[{'id': 803, 'main': 'Clouds', 'description': 'broken clouds', 'icon': '04n'}]",stations,10000.0,1627737541.0,-36000.0,4035715.0,Avarua,200,-159.775,-21.2078,296.18,296.44,296.18,296.18,1013.0,73.0,8.23,60.0,,75.0,1.0,7271.0,CK,1627751446.0,1627791600.0,,,,
"[{'id': 804, 'main': 'Clouds', 'description': 'overcast clouds', 'icon': '04n'}]",stations,10000.0,1627737541.0,36000.0,2017658.0,Preobrazheniye,200,133.9064,42.9019,296.15,296.93,296.15,296.15,1006.0,93.0,6.25,62.0,9.85,96.0,,,RU,1627674842.0,1627727241.0,,1006.0,999.0,
"[{'id': 800, 'main': 'Clear', 'description': 'clear sky', 'icon': '01d'}]",stations,10000.0,1627737542.0,-14400.0,4513583.0,Hamilton,200,-84.5333,39.1834,294.38,294.62,292.36,295.71,1016.0,79.0,0.45,130.0,0.45,1.0,2.0,2005257.0,US,1627727863.0,1627779068.0,,,,
"[{'id': 801, 'main': 'Clouds', 'description': 'few clouds', 'icon': '02d'}]",stations,10000.0,1627737542.0,-10800.0,3450083.0,Santa Maria,200,-53.8069,-29.6842,279.76,277.9,279.76,279.76,1029.0,100.0,2.57,130.0,,20.0,1.0,8430.0,BR,1627726835.0,1627765348.0,,,,
"[{'id': 802, 'main': 'Clouds', 'description': 'scattered clouds', 'icon': '03d'}]",stations,10000.0,1627737438.0,-10800.0,3833367.0,Ushuaia,200,-68.3,-54.8,275.96,274.54,272.94,275.96,1005.0,65.0,1.54,360.0,,40.0,1.0,8303.0,AR,1627734215.0,1627764924.0,,,,
"[{'id': 804, 'main': 'Clouds', 'description': 'overcast clouds', 'icon': '04d'}]",stations,10000.0,1627737542.0,7200.0,371745.0,Kutum,200,24.6667,14.2,303.85,303.55,303.85,303.85,1010.0,39.0,6.98,294.0,5.31,100.0,,,SD,1627704293.0,1627750223.0,,1010.0,889.0,
,,,,,,,404,,,,,,,,,,,,,,,,,,,,,city not found
"[{'id': 804, 'main': 'Clouds', 'description': 'overcast clouds', 'icon': '04d'}]",stations,10000.0,1627737547.0,-10800.0,3466704.0,Castro,200,-50.0119,-24.7911,280.32,277.57,280.32,280.32,1031.0,71.0,4.21,82.0,7.06,100.0,,,BR,1627725441.0,1627764920.0,,1031.0,914.0,
"[{'id': 803, 'main': 'Clouds', 'description': 'broken clouds', 'icon': '04n'}]",stations,10000.0,1627737547.0,-28800.0,5880054.0,Barrow,200,-156.7887,71.2906,279.16,275.69,279.16,279.16,1006.0,97.0,5.14,80.0,,75.0,1.0,7649.0,US,0.0,0.0,,,,
"[{'id': 800, 'main': 'Clear', 'description': 'clear sky', 'icon': '01d'}]",stations,10000.0,1627737547.0,-10800.0,3874787.0,Punta Arenas,200,-70.9167,-53.15,278.21,272.14,278.16,278.21,1011.0,65.0,12.86,320.0,,0.0,1.0,8487.0,CL,1627734443.0,1627765952.0,,,,
,,,,,,,404,,,,,,,,,,,,,,,,,,,,,city not found
"[{'id': 800, 'main': 'Clear', 'description': 'clear sky', 'icon': '01d'}]",stations,10000.0,1627737547.0,-14400.0,5282297.0,Bethel,200,-73.414,41.3712,290.75,290.42,288.72,293.07,1015.0,71.0,1.34,250.0,3.58,1.0,2.0,2004826.0,US,1627724873.0,1627776721.0,,,,
"[{'id': 803, 'main': 'Clouds', 'description': 'broken clouds', 'icon': '04d'}]",stations,10000.0,1627737547.0,-21600.0,6170031.0,Tuktoyaktuk,200,-133.0374,69.4541,288.15,287.85,288.15,288.15,1011.0,82.0,5.66,240.0,,75.0,1.0,942.0,CA,1627727558.0,1627802654.0,,,,
"[{'id': 800, 'main': 'Clear', 'description': 'clear sky', 'icon': '01d'}]",stations,10000.0,1627737548.0,10800.0,921906.0,Domoni,200,44.5319,-12.2569,298.44,298.8,298.44,298.44,1019.0,68.0,6.35,154.0,7.11,7.0,,,KM,1627701661.0,1627743320.0,,1019.0,1019.0,
"[{'id': 800, 'main': 'Clear', 'description': 'clear sky', 'icon': '01d'}]",stations,10000.0,1627737548.0,-21600.0,5546220.0,Saint George,200,-113.5841,37.1041,297.34,297.51,296.17,298.9,1017.0,65.0,1.34,60.0,2.24,1.0,2.0,2007591.0,US,1627735122.0,1627785752.0,,,,
"[{'id': 800, 'main': 'Clear', 'description': 'clear sky', 'icon': '01d'}]",stations,10000.0,1627737548.0,-10800.0,3443061.0,Chui,200,-53.4616,-33.6971,282.81,281.68,282.81,282.81,1031.0,72.0,2.34,7.0,3.79,0.0,,,UY,1627727186.0,1627764831.0,,1031.0,1029.0,
"[{'id': 800, 'main': 'Clear', 'description': 'clear sky', 'icon': '01n'}]",stations,10000.0,1627737548.0,32400.0,1850523.0,Tateyama,200,139.8667,34.9833,298.52,299.15,298.2,300.94,1003.0,78.0,1.34,237.0,1.76,1.0,2.0,20334.0,JP,1627674533.0,1627724688.0,,1003.0,1002.0,
"[{'id': 500, 'main': 'Rain', 'description': 'light rain', 'icon': '10n'}]",stations,10000.0,1627737548.0,43200.0,4031574.0,Provideniya,200,-173.3,64.3833,280.65,277.6,280.65,280.65,995.0,93.0,5.02,17.0,7.26,100.0,,,RU,1627828777.0,1627893555.0,0.58,995.0,994.0,
"[{'id': 804, 'main': 'Clouds', 'description': 'overcast clouds', 'icon': '04d'}]",stations,10000.0,1627737548.0,3600.0,2618795.0,Klaksvík,200,-6.589,62.2266,283.66,282.72,283.66,283.66,1012.0,75.0,7.2,1.0,7.33,100.0,1.0,1596.0,FO,1627703294.0,1627766224.0,,1012.0,1009.0,
,,,,,,,404,,,,,,,,,,,,,,,,,,,,,city not found
"[{'id': 804, 'main': 'Clouds', 'description': 'overcast clouds', 'icon': '04n'}]",stations,10000.0,1627737549.0,36000.0,2092164.0,Lorengau,200,147.2712,-2.0226,300.27,302.86,300.27,300.27,1012.0,77.0,1.43,198.0,1.82,100.0,,,PG,1627676185.0,1627719483.0,,1012.0,1012.0,
"[{'id': 804, 'main': 'Clouds', 'description': 'overcast clouds', 'icon': '04d'}]",stations,10000.0,1627737549.0,7200.0,1015776.0,Bredasdorp,200,20.0403,-34.5322,289.77,289.37,289.77,289.77,1024.0,72.0,3.6,220.0,,91.0,1.0,1966.0,ZA,1627709651.0,1627747086.0,,,,
"[{'id': 804, 'main': 'Clouds', 'description': 'overcast clouds', 'icon': '04d'}]",stations,10000.0,1627737549.0,7200.0,986717.0,Kruisfontein,200,24.7314,-34.0033,297.94,297.05,297.94,297.94,1023.0,22.0,1.19,210.0,2.79,100.0,,,ZA,1627708465.0,1627746020.0,,1023.0,997.0,
"[{'id': 800, 'main': 'Clear', 'description': 'clear sky', 'icon': '01d'}]",stations,10000.0,1627737549.0,10800.0,158597.0,Kahama,200,32.6,-3.8333,301.67,300.26,301.67,301.67,1013.0,20.0,4.26,136.0,5.07,3.0,,,TZ,1627703848.0,1627746861.0,,1013.0,881.0,
"[{'id': 804, 'main': 'Clouds', 'description': 'overcast clouds', 'icon': '04d'}]",stations,10000.0,1627737549.0,7200.0,780687.0,Berlevåg,200,29.0864,70.8578,282.48,279.9,282.48,282.48,998.0,89.0,5.01,121.0,6.09,100.0,,,NO,1627684273.0,1627768122.0,,998.0,997.0,
"[{'id': 800, 'main': 'Clear', 'description': 'clear sky', 'icon': '01d'}]",stations,10000.0,1627737549.0,7200.0,80509.0,Al Bardīyah,200,25.0865,31.7561,305.94,308.48,305.94,305.94,1007.0,48.0,9.19,328.0,10.65,0.0,,,LY,1627702481.0,1627751833.0,,1007.0,1004.0,
,,,,,,,404,,,,,,,,,,,,,,,,,,,,,city not found
"[{'id': 804, 'main': 'Clouds', 'description': 'overcast clouds', 'icon': '04d'}]",stations,10000.0,1627737550.0,-14400.0,6111696.0,Port-Cartier,200,-66.8654,50.0334,287.48,287.32,287.45,288.27,1000.0,90.0,2.66,315.0,7.18,100.0,2.0,2006302.0,CA,1627721736.0,1627776715.0,,1000.0,997.0,
"[{'id': 804, 'main': 'Clouds', 'description': 'overcast clouds', 'icon': '04d'}]",stations,10000.0,1627737550.0,18000.0,1337605.0,Mahibadhoo,200,72.9667,3.7833,301.72,305.12,301.72,301.72,1012.0,71.0,2.96,283.0,3.39,94.0,,,MV,1627693556.0,1627737777.0,,1012.0,1012.0,
"[{'id': 801, 'main': 'Clouds', 'description': 'few clouds', 'icon': '02d'}]",stations,10000.0,1627737550.0,10800.0,546105.0,Nikolskoye,200,30.7861,59.7035,294.38,293.71,292.6,296.09,999.0,44.0,6.18,281.0,10.55,23.0,1.0,8926.0,RU,1627695441.0,1627756138.0,,999.0,995.0,
"[{'id': 803, 'main': 'Clouds', 'description': 'broken clouds', 'icon': '04d'}]",stations,10000.0,1627737550.0,7200.0,964712.0,Plettenberg Bay,200,23.3716,-34.0527,293.72,292.9,293.72,293.72,1023.0,41.0,1.35,147.0,1.55,81.0,,,ZA,1627708797.0,1627746341.0,,1023.0,1013.0,
"[{'id': 800, 'main': 'Clear', 'description': 'clear sky', 'icon': '01n'}]",stations,10000.0,1627737550.0,-32400.0,4030556.0,Rikitea,200,-134.9692,-23.1203,294.72,294.76,294.72,294.72,1012.0,70.0,6.36,211.0,6.92,0.0,,,PF,1627745667.0,1627785472.0,,1012.0,1010.0,
"[{'id': 804, 'main': 'Clouds', 'description': 'overcast clouds', 'icon': '04n'}]",stations,10000.0,1627737551.0,36000.0,2093967.0,Kimbe,200,150.1429,-5.5502,297.08,297.96,297.08,297.08,1012.0,93.0,2.22,164.0,3.16,100.0,,,PG,1627675776.0,1627718513.0,,1012.0,1011.0,
"[{'id': 803, 'main': 'Clouds', 'description': 'broken clouds', 'icon': '04d'}]",stations,10000.0,1627737551.0,-14400.0,3374083.0,Bathsheba,200,-59.5167,13.2167,302.49,308.62,302.49,302.49,1017.0,79.0,9.26,100.0,,75.0,1.0,8772.0,BB,1627724584.0,1627770339.0,,,,
"[{'id': 701, 'main': 'Mist', 'description': 'mist', 'icon': '50d'}]",stations,10000.0,1627737551.0,-25200.0,5367788.0,Lompoc,200,-120.4579,34.6391,287.32,287.3,286.23,288.97,1017.0,96.0,1.54,220.0,,90.0,1.0,4747.0,US,1627737087.0,1627787087.0,,,,
"[{'id': 804, 'main': 'Clouds', 'description': 'overcast clouds', 'icon': '04d'}]",stations,10000.0,1627737551.0,7200.0,3366880.0,Hermanus,200,19.2345,-34.4187,294.21,294.25,294.21,294.21,1024.0,72.0,1.79,237.0,2.22,100.0,2.0,2003650.0,ZA,1627709831.0,1627747292.0,,1024.0,1020.0,
"[{'id': 804, 'main': 'Clouds', 'description': 'overcast clouds', 'icon': '04n'}]",stations,10000.0,1627737551.0,-36000.0,4033557.0,Tautira,200,-149.15,-17.7333,294.16,293.94,294.16,294.16,1015.0,62.0,5.97,149.0,5.73,99.0,1.0,7318.0,PF,1627748593.0,1627789353.0,,1015.0,1015.0,
"[{'id': 804, 'main': 'Clouds', 'description': 'overcast clouds', 'icon': '04d'}]",stations,10000.0,1627737551.0,-14400.0,3893726.0,Constitución,200,-72.4167,-35.3333,282.95,281.52,282.95,282.95,1023.0,80.0,2.84,145.0,4.96,100.0,,,CL,1627731922.0,1627769193.0,,1023.0,1019.0,
"[{'id': 800, 'main': 'Clear', 'description': 'clear sky', 'icon': '01d'}]",stations,10000.0,1627737552.0,14400.0,934649.0,Cap Malheureux,200,57.6142,-19.9842,296.19,296.25,296.19,296.42,1025.0,65.0,4.02,125.0,7.15,5.0,2.0,2002134.0,MU,1627699180.0,1627739522.0,,,,
"[{'id': 803, 'main': 'Clouds', 'description': 'broken clouds', 'icon': '04n'}]",stations,10000.0,1627737552.0,28800.0,1788852.0,Xining,200,101.7667,36.6167,292.56,292.02,292.56,292.56,1006.0,56.0,4.62,0.0,7.65,81.0,,,CN,1627683473.0,1627734036.0,,1006.0,777.0,
"[{'id': 802, 'main': 'Clouds', 'description': 'scattered clouds', 'icon': '03d'}]",stations,10000.0,1627737552.0,-10800.0,3393692.0,Itarema,200,-39.9167,-2.9248,303.6,304.38,303.6,303.6,1017.0,47.0,6.05,133.0,8.38,26.0,,,BR,1627721179.0,1627764337.0,,1017.0,1015.0,
"[{'id': 802, 'main': 'Clouds', 'description': 'scattered clouds', 'icon': '03d'}]",stations,10000.0,1627737291.0,7200.0,3369157.0,Cape Town,200,18.4232,-33.9258,295.11,294.69,292.65,297.1,1025.0,51.0,0.45,113.0,1.34,31.0,2.0,2033665.0,ZA,1627709969.0,1627747544.0,,,,
"[{'id': 800, 'main': 'Clear', 'description': 'clear sky', 'icon': '01d'}]",stations,10000.0,1627737552.0,16200.0,1129516.0,Qarqīn,200,66.0436,37.4185,310.84,308.03,310.84,310.84,1000.0,11.0,5.81,278.0,6.05,0.0,,,AF,1627691945.0,1627742711.0,,1000.0,972.0,
"[{'id': 800, 'main': 'Clear', 'description': 'clear sky', 'icon': '01n'}]",stations,10000.0,1627737552.0,32400.0,2017155.0,Saskylakh,200,114.0833,71.9167,297.67,297.14,297.67,297.67,1013.0,37.0,3.46,171.0,3.82,0.0,,,RU,0.0,0.0,,1013.0,1012.0,
,,,,,,,404,,,,,,,,,,,,,,,,,,,,,city not found
"[{'id': 804, 'main': 'Clouds', 'description': 'overcast clouds', 'icon': '04n'}]",stations,10000.0,1627737553.0,34200.0,2173911.0,Broken Hill,200,141.4333,-31.95,291.41,290.41,291.41,291.41,1006.0,43.0,5.36,284.0,11.85,100.0,,,AU,1627680241.0,1627718228.0,,1006.0,970.0,
"[{'id': 804, 'main': 'Clouds', 'description': 'overcast clouds', 'icon': '04d'}]",stations,10000.0,1627737553.0,3600.0,2446796.0,Bilma,200,12.9164,18.6853,313.34,310.16,313.34,313.34,1008.0,9.0,2.16,11.0,3.8,95.0,,,NE,1627706721.0,1627753436.0,,1008.0,970.0,
"[{'id': 804, 'main': 'Clouds', 'description': 'overcast clouds', 'icon': '04n'}]",stations,10000.0,1627737553.0,43200.0,6201424.0,Mataura,200,168.8643,-46.1927,281.19,281.19,281.19,281.19,1011.0,99.0,0.5,51.0,0.58,100.0,2.0,2008959.0,NZ,1627761905.0,1627796194.0,,1011.0,1005.0,
"[{'id': 804, 'main': 'Clouds', 'description': 'overcast clouds', 'icon': '04n'}]",stations,10000.0,1627737553.0,32400.0,2112802.0,Hasaki,200,140.8333,35.7333,298.36,299.21,297.31,298.37,1002.0,87.0,5.47,10.0,7.54,100.0,1.0,7955.0,JP,1627674206.0,1627724552.0,,1002.0,1002.0,
"[{'id': 803, 'main': 'Clouds', 'description': 'broken clouds', 'icon': '04n'}]",stations,10000.0,1627737553.0,28800.0,2075265.0,Busselton,200,115.3333,-33.65,284.84,284.08,284.84,285.42,1010.0,77.0,11.85,273.0,16.98,82.0,2.0,2020551.0,AU,1627686692.0,1627724305.0,,1010.0,1009.0,
"[{'id': 801, 'main': 'Clouds', 'description': 'few clouds', 'icon': '02d'}]",stations,10000.0,1627737553.0,-14400.0,5106841.0,Albany,200,-73.9662,42.6001,288.57,287.84,285.84,290.77,1014.0,64.0,2.35,308.0,5.22,21.0,2.0,19530.0,US,1627724815.0,1627777044.0,,,,
"[{'id': 800, 'main': 'Clear', 'description': 'clear sky', 'icon': '01d'}]",stations,10000.0,1627737553.0,3600.0,2398430.0,Mimongo,200,11.6068,-1.6195,305.09,304.69,305.09,305.09,1012.0,36.0,2.4,219.0,2.55,1.0,,,GA,1627708711.0,1627752074.0,,1012.0,953.0,
"[{'id': 500, 'main': 'Rain', 'description': 'light rain', 'icon': '10n'}]",stations,10000.0,1627737554.0,-36000.0,5855927.0,Hilo,200,-155.09,19.7297,295.23,295.71,295.0,295.82,1018.0,85.0,2.06,230.0,,40.0,1.0,7881.0,US,1627746958.0,1627793839.0,0.2,,,
"[{'id': 804, 'main': 'Clouds', 'description': 'overcast clouds', 'icon': '04d'}]",stations,10000.0,1627737554.0,-10800.0,3465769.0,Conceição da Barra,200,-39.7322,-18.5933,295.1,294.81,295.1,295.1,1028.0,56.0,5.37,167.0,7.38,90.0,,,BR,1627722414.0,1627763013.0,,1028.0,1028.0,
"[{'id': 802, 'main': 'Clouds', 'description': 'scattered clouds', 'icon': '03d'}]",stations,10000.0,1627737554.0,-10800.0,3402648.0,Carutapera,200,-46.02,-1.195,300.18,303.86,300.18,300.18,1017.0,89.0,2.95,88.0,4.99,32.0,,,BR,1627722507.0,1627765938.0,,1017.0,1016.0,
"[{'id': 803, 'main': 'Clouds', 'description': 'broken clouds', 'icon': '04d'}]",stations,10000.0,1627737554.0,7200.0,964432.0,Port Alfred,200,26.891,-33.5906,297.13,296.6,297.13,297.13,1023.0,39.0,1.21,159.0,5.35,64.0,,,ZA,1627707900.0,1627745549.0,,1023.0,1021.0,
"[{'id': 800, 'main': 'Clear', 'description': 'clear sky', 'icon': '01d'}]",stations,10000.0,1627737307.0,7200.0,2522013.0,Algeciras,200,-5.4505,36.1333,299.98,299.94,297.02,301.96,1015.0,41.0,9.26,260.0,,0.0,1.0,7026.0,ES,1627709282.0,1627759690.0,,,,
"[{'id': 804, 'main': 'Clouds', 'description': 'overcast clouds', 'icon': '04d'}]",stations,10000.0,1627737554.0,-14400.0,6096551.0,Pangnirtung,200,-65.7125,66.1451,285.31,284.28,285.31,285.31,1012.0,65.0,1.94,188.0,2.09,100.0,,,CA,1627715048.0,1627782849.0,,1012.0,1009.0,
"[{'id': 803, 'main': 'Clouds', 'description': 'broken clouds', 'icon': '04n'}]",stations,10000.0,1627737555.0,18000.0,1282256.0,Hithadhoo,200,73.0833,-0.6,300.55,303.01,300.55,300.55,1013.0,73.0,1.58,139.0,1.59,66.0,,,MV,1627693876.0,1627737401.0,,1013.0,1012.0,
"[{'id': 804, 'main': 'Clouds', 'description': 'overcast clouds', 'icon': '04n'}]",stations,10000.0,1627737555.0,25200.0,1633419.0,Padang,200,100.3543,-0.9492,299.18,299.18,299.18,299.18,1013.0,88.0,1.06,353.0,1.56,100.0,1.0,9423.0,ID,1627687359.0,1627730828.0,,1013.0,1012.0,
"[{'id': 803, 'main': 'Clouds', 'description': 'broken clouds', 'icon': '04n'}]",stations,10000.0,1627737555.0,28800.0,1695736.0,Panalingaan,200,117.4231,8.7842,300.51,304.3,300.51,300.51,1010.0,85.0,2.05,220.0,3.47,58.0,,,PH,1627682482.0,1627727513.0,,1010.0,1008.0,
,,,,,,,404,,,,,,,,,,,,,,,,,,,,,city not found
"[{'id': 501, 'main': 'Rain', 'description': 'moderate rain', 'icon': '10d'}]",stations,7525.0,1627737555.0,0.0,2409215.0,Mattru,200,-11.8332,7.6244,299.33,299.33,299.33,299.33,1016.0,82.0,2.86,252.0,4.47,98.0,,,SL,1627713600.0,1627758435.0,1.21,1016.0,1009.0,
"[{'id': 804, 'main': 'Clouds', 'description': 'overcast clouds', 'icon': '04n'}]",stations,10000.0,1627737555.0,28800.0,1529484.0,Kumul,200,93.45,42.8,305.0,303.17,305.0,305.0,999.0,23.0,8.25,15.0,9.81,100.0,,,CN,1627684574.0,1627736927.0,,999.0,920.0,
"[{'id': 804, 'main': 'Clouds', 'description': 'overcast clouds', 'icon': '04n'}]",stations,10000.0,1627737556.0,36000.0,2027316.0,Ayan,200,138.1667,56.45,284.89,284.13,284.89,284.89,1018.0,77.0,3.15,239.0,3.22,100.0,,,RU,1627670792.0,1627729245.0,,1018.0,1018.0,
"[{'id': 800, 'main': 'Clear', 'description': 'clear sky', 'icon': '01n'}]",stations,10000.0,1627737556.0,25200.0,2022572.0,Khatanga,200,102.5,71.9667,298.35,297.74,298.35,298.35,1007.0,31.0,5.83,155.0,11.15,10.0,,,RU,0.0,0.0,,1007.0,1004.0,
"[{'id': 701, 'main': 'Mist', 'description': 'mist', 'icon': '50d'}]",stations,3219.0,1627737556.0,-25200.0,6111862.0,Port Hardy,200,-127.4199,50.6996,286.25,286.23,285.15,286.25,1019.0,100.0,1.54,60.0,,90.0,1.0,1011.0,CA,1627736136.0,1627791380.0,,,,
"[{'id': 801, 'main': 'Clouds', 'description': 'few clouds', 'icon': '02d'}]",stations,10000.0,1627737556.0,0.0,3372745.0,Rabo de Peixe,200,-25.5833,37.8,297.88,298.11,297.88,297.88,1030.0,65.0,6.69,30.0,,20.0,1.0,6899.0,PT,1627713897.0,1627764739.0,,,,
,,,,,,,404,,,,,,,,,,,,,,,,,,,,,city not found
"[{'id': 801, 'main': 'Clouds', 'description': 'few clouds', 'icon': '02d'}]",stations,10000.0,1627737556.0,3600.0,2397978.0,Mounana,200,13.1586,-1.4085,311.28,310.45,311.28,311.28,1009.0,22.0,0.54,115.0,2.53,14.0,,,GA,1627708322.0,1627751719.0,,1009.0,961.0,
"[{'id': 500, 'main': 'Rain', 'description': 'light rain', 'icon': '10d'}]",stations,10000.0,1627737557.0,-21600.0,3652764.0,Puerto Ayora,200,-90.3518,-0.7393,293.46,294.11,293.46,293.46,1013.0,98.0,3.58,159.0,6.26,98.0,2.0,2005652.0,EC,1627733110.0,1627776613.0,0.25,,,
"[{'id': 800, 'main': 'Clear', 'description': 'clear sky', 'icon': '01d'}]",stations,10000.0,1627737557.0,3600.0,2401495.0,Booué,200,11.9385,-0.0921,308.88,309.65,308.88,308.88,1010.0,33.0,1.87,270.0,1.97,6.0,,,GA,1627708510.0,1627752115.0,,1010.0,989.0,
"[{'id': 804, 'main': 'Clouds', 'description': 'overcast clouds', 'icon': '04d'}]",stations,1976.0,1627737557.0,-14400.0,6137462.0,Saint-Augustin,200,-58.6502,51.226,286.33,286.24,286.33,286.33,993.0,97.0,4.81,59.0,8.14,100.0,,,CA,1627719495.0,1627775012.0,,993.0,992.0,
"[{'id': 804, 'main': 'Clouds', 'description': 'overcast clouds', 'icon': '04n'}]",stations,10000.0,1627737557.0,43200.0,2206894.0,Hokitika,200,170.9667,-42.7167,282.78,282.01,282.78,282.78,1013.0,88.0,1.88,111.0,1.81,100.0,,,NZ,1627760858.0,1627796231.0,,1013.0,1013.0,
"[{'id': 800, 'main': 'Clear', 'description': 'clear sky', 'icon': '01n'}]",stations,10000.0,1627737557.0,39600.0,2136825.0,Isangel,200,169.2667,-19.55,293.92,293.57,293.92,293.92,1014.0,58.0,7.2,189.0,8.78,7.0,,,VU,1627758727.0,1627799178.0,,1014.0,1014.0,
"[{'id': 804, 'main': 'Clouds', 'description': 'overcast clouds', 'icon': '04d'}]",stations,10000.0,1627737557.0,-14400.0,3901547.0,Villamontes,200,-63.5,-21.25,289.2,287.7,289.2,289.2,1021.0,32.0,0.61,301.0,1.12,100.0,,,BO,1627728351.0,1627768484.0,,1021.0,968.0,
"[{'id': 804, 'main': 'Clouds', 'description': 'overcast clouds', 'icon': '04d'}]",stations,10000.0,1627737557.0,19800.0,1272140.0,Dwārka,200,68.9678,22.2394,301.51,306.17,301.51,301.51,1003.0,80.0,11.38,250.0,13.69,100.0,,,IN,1627692936.0,1627740316.0,,1003.0,1002.0,
"[{'id': 802, 'main': 'Clouds', 'description': 'scattered clouds', 'icon': '03d'}]",stations,10000.0,1627737558.0,-10800.0,3385899.0,Tutóia,200,-42.2744,-2.7619,301.04,303.73,301.04,301.04,1017.0,71.0,3.05,144.0,5.11,26.0,,,BR,1627721732.0,1627764916.0,,1017.0,1016.0,
"[{'id': 804, 'main': 'Clouds', 'description': 'overcast clouds', 'icon': '04d'}]",stations,10000.0,1627737558.0,7200.0,2892874.0,Karlsfeld,200,11.4667,48.2167,295.15,295.05,294.24,295.87,1012.0,63.0,2.16,262.0,3.4,94.0,2.0,2013241.0,DE,1627703297.0,1627757555.0,,1012.0,956.0,
"[{'id': 804, 'main': 'Clouds', 'description': 'overcast clouds', 'icon': '04d'}]",stations,10000.0,1627737558.0,-14400.0,5122534.0,Jamestown,200,-79.2353,42.097,288.44,288.35,286.95,291.09,1017.0,89.0,0.89,25.0,1.34,90.0,2.0,2008828.0,US,1627726160.0,1627778228.0,,,,
"[{'id': 800, 'main': 'Clear', 'description': 'clear sky', 'icon': '01d'}]",stations,10000.0,1627737558.0,-25200.0,5969025.0,Haines Junction,200,-137.5108,60.7522,279.12,279.12,279.12,279.12,1022.0,87.0,0.51,320.0,,8.0,1.0,287.0,CA,1627735461.0,1627796898.0,,,,
"[{'id': 800, 'main': 'Clear', 'description': 'clear sky', 'icon': '01d'}]",stations,10000.0,1627737558.0,18000.0,1174062.0,Kharan,200,65.4167,28.5833,314.49,311.05,314.49,314.49,996.0,8.0,9.18,271.0,7.89,2.0,,,PK,1627693150.0,1627741807.0,,996.0,921.0,
"[{'id': 801, 'main': 'Clouds', 'description': 'few clouds', 'icon': '02n'}]",stations,10000.0,1627737558.0,-34200.0,4020109.0,Atuona,200,-139.0333,-9.8,297.57,298.03,297.57,297.57,1012.0,75.0,5.36,93.0,5.24,11.0,,,PF,1627745510.0,1627787580.0,,1012.0,1004.0,
"[{'id': 800, 'main': 'Clear', 'description': 'clear sky', 'icon': '01n'}]",stations,10000.0,1627737559.0,28800.0,2036290.0,Kouqian,200,126.4578,43.6391,296.75,297.46,296.75,296.75,998.0,88.0,2.02,169.0,1.89,10.0,,,CN,1627676510.0,1627729148.0,,998.0,972.0,
"[{'id': 801, 'main': 'Clouds', 'description': 'few clouds', 'icon': '02d'}]",stations,10000.0,1627737559.0,-14400.0,3894426.0,Coyhaique,200,-72.0662,-45.5752,273.12,270.59,271.49,273.12,1028.0,86.0,2.06,30.0,,20.0,1.0,8491.0,CL,1627733251.0,1627767696.0,,,,
"[{'id': 801, 'main': 'Clouds', 'description': 'few clouds', 'icon': '02n'}]",stations,2226.0,1627737559.0,-10800.0,3831208.0,Qaanaaq,200,-69.3632,77.484,278.9,278.9,278.9,278.9,1013.0,84.0,0.73,234.0,0.82,23.0,,,GL,0.0,0.0,,1013.0,1009.0,
"[{'id': 802, 'main': 'Clouds', 'description': 'scattered clouds', 'icon': '03d'}]",stations,10000.0,1627737559.0,14400.0,1106677.0,Bambous Virieux,200,57.7575,-20.3428,296.29,296.33,296.05,296.29,1025.0,64.0,4.63,120.0,,40.0,1.0,2061.0,MU,1627699177.0,1627739456.0,,,,
"[{'id': 802, 'main': 'Clouds', 'description': 'scattered clouds', 'icon': '03d'}]",stations,10000.0,1627737559.0,21600.0,1524296.0,Esil,200,66.4042,51.9556,303.26,302.63,303.26,303.26,1010.0,37.0,4.95,332.0,6.02,46.0,,,KZ,1627689278.0,1627745205.0,,1010.0,985.0,
"[{'id': 800, 'main': 'Clear', 'description': 'clear sky', 'icon': '01d'}]",stations,10000.0,1627737559.0,-10800.0,3466165.0,Cidreira,200,-50.2056,-30.1811,286.86,285.98,286.86,286.86,1031.0,65.0,6.07,43.0,11.53,0.0,,,BR,1627726023.0,1627764431.0,,1031.0,1030.0,
"[{'id': 802, 'main': 'Clouds', 'description': 'scattered clouds', 'icon': '03d'}]",stations,10000.0,1627737560.0,18000.0,1165057.0,Shinpokh,200,71.1782,34.3292,304.82,307.87,304.82,304.82,999.0,54.0,4.46,100.0,4.49,46.0,1.0,7590.0,PK,1627691108.0,1627741083.0,,999.0,955.0,
"[{'id': 804, 'main': 'Clouds', 'description': 'overcast clouds', 'icon': '04n'}]",stations,10000.0,1627737560.0,36000.0,2155415.0,New Norfolk,200,147.0587,-42.7826,281.95,281.95,280.32,284.22,997.0,76.0,0.89,294.0,2.24,100.0,2.0,2031307.0,AU,1627680267.0,1627715503.0,,,,
"[{'id': 500, 'main': 'Rain', 'description': 'light rain', 'icon': '10n'}]",stations,10000.0,1627737560.0,36000.0,2171099.0,Codrington,200,141.9667,-38.2667,282.0,280.04,282.0,282.0,1005.0,90.0,3.42,289.0,6.61,100.0,,,AU,1627680863.0,1627717351.0,0.44,1005.0,1003.0,
,,,,,,,404,,,,,,,,,,,,,,,,,,,,,city not found
"[{'id': 300, 'main': 'Drizzle', 'description': 'light intensity drizzle', 'icon': '09d'}]",stations,8000.0,1627737560.0,-10800.0,3471451.0,Arraial do Cabo,200,-42.0278,-22.9661,290.07,289.96,290.07,295.13,1031.0,82.0,5.14,250.0,,75.0,1.0,8326.0,BR,1627723355.0,1627763174.0,,,,
"[{'id': 804, 'main': 'Clouds', 'description': 'overcast clouds', 'icon': '04d'}]",stations,10000.0,1627737560.0,10800.0,1487332.0,Verkhnyaya Inta,200,60.3094,65.9811,291.45,290.43,291.45,291.45,1003.0,42.0,2.06,221.0,3.55,100.0,,,RU,1627684851.0,1627752557.0,,1003.0,993.0,
"[{'id': 803, 'main': 'Clouds', 'description': 'broken clouds', 'icon': '04d'}]",stations,10000.0,1627737561.0,10800.0,110690.0,Faya,200,42.4509,18.3851,292.44,292.15,292.21,292.44,1011.0,66.0,4.17,237.0,5.32,56.0,1.0,7396.0,SA,1627699658.0,1627746322.0,,1011.0,788.0,
"[{'id': 500, 'main': 'Rain', 'description': 'light rain', 'icon': '10d'}]",stations,10000.0,1627737561.0,-9000.0,6167817.0,Torbay,200,-52.7314,47.6666,294.11,294.66,292.74,294.58,1002.0,92.0,7.2,210.0,11.32,75.0,1.0,998.0,CA,1627718827.0,1627772839.0,0.2,,,
"[{'id': 804, 'main': 'Clouds', 'description': 'overcast clouds', 'icon': '04n'}]",stations,10000.0,1627737561.0,36000.0,2093846.0,Kiunga,200,141.2906,-6.1219,295.52,296.4,295.52,295.52,1013.0,99.0,0.71,100.0,0.75,100.0,,,PG,1627677946.0,1627720592.0,,1013.0,1009.0,
"[{'id': 800, 'main': 'Clear', 'description': 'clear sky', 'icon': '01d'}]",stations,10000.0,1627737561.0,7200.0,964420.0,Port Elizabeth,200,25.5701,-33.918,299.31,299.31,299.31,299.31,1023.0,34.0,2.06,140.0,,0.0,1.0,1973.0,ZA,1627708254.0,1627745829.0,,,,
,,,,,,,404,,,,,,,,,,,,,,,,,,,,,city not found
"[{'id': 800, 'main': 'Clear', 'description': 'clear sky', 'icon': '01d'}]",stations,10000.0,1627737561.0,-14400.0,5097801.0,Fairview,200,-73.999,40.8126,291.82,291.44,289.36,294.16,1016.0,65.0,2.06,0.0,,1.0,1.0,5141.0,US,1627725097.0,1627776777.0,,,,
"[{'id': 804, 'main': 'Clouds', 'description': 'overcast clouds', 'icon': '04n'}]",stations,10000.0,1627737561.0,34200.0,2063036.0,Port Lincoln,200,135.8667,-34.7333,284.37,283.43,284.37,284.37,1009.0,72.0,3.29,287.0,4.57,100.0,,,AU,1627681892.0,1627719250.0,,1009.0,1007.0,
"[{'id': 804, 'main': 'Clouds', 'description': 'overcast clouds', 'icon': '04d'}]",stations,10000.0,1627737562.0,-25200.0,5563839.0,Fortuna,200,-124.1573,40.5982,284.95,284.61,284.34,285.33,1014.0,93.0,1.27,0.0,1.4,100.0,2.0,2040243.0,US,1627737175.0,1627788775.0,,,,
"[{'id': 804, 'main': 'Clouds', 'description': 'overcast clouds', 'icon': '04d'}]",stations,10000.0,1627737562.0,25200.0,1503153.0,Klyuchi,200,79.1667,52.2667,299.98,299.39,299.98,299.98,1011.0,28.0,1.56,260.0,4.59,100.0,,,RU,1627686136.0,1627742221.0,,1011.0,996.0,
"[{'id': 803, 'main': 'Clouds', 'description': 'broken clouds', 'icon': '04n'}]",stations,10000.0,1627737562.0,-36000.0,5848280.0,Kapaa,200,-159.319,22.0752,298.88,299.39,297.14,300.33,1018.0,72.0,0.89,340.0,3.58,75.0,2.0,2001562.0,US,1627747756.0,1627795071.0,,,,
"[{'id': 801, 'main': 'Clouds', 'description': 'few clouds', 'icon': '02d'}]",stations,10000.0,1627737562.0,-10800.0,3392126.0,Pilar,200,-35.9567,-9.5972,300.11,302.62,300.11,300.11,1021.0,78.0,5.53,135.0,8.25,21.0,1.0,8413.0,BR,1627720759.0,1627762856.0,,1021.0,1006.0,
"[{'id': 803, 'main': 'Clouds', 'description': 'broken clouds', 'icon': '04n'}]",stations,10000.0,1627737562.0,36000.0,2016430.0,Slavyanka,200,131.3847,42.8633,297.51,298.48,297.51,297.51,1004.0,95.0,7.37,116.0,12.0,54.0,,,RU,1627675453.0,1627727840.0,,1004.0,1003.0,
"[{'id': 802, 'main': 'Clouds', 'description': 'scattered clouds', 'icon': '03d'}]",stations,10000.0,1627737562.0,-21600.0,6089245.0,Norman Wells,200,-126.8329,65.282,285.17,284.7,285.17,285.17,1014.0,87.0,1.54,340.0,,40.0,1.0,951.0,CA,1627730404.0,1627796830.0,,,,
"[{'id': 804, 'main': 'Clouds', 'description': 'overcast clouds', 'icon': '04n'}]",stations,10000.0,1627737563.0,43200.0,2208248.0,Kaitangata,200,169.8464,-46.2817,281.71,281.71,281.71,281.71,1011.0,96.0,1.27,56.0,1.81,100.0,,,NZ,1627761684.0,1627795943.0,,1011.0,1010.0,
"[{'id': 803, 'main': 'Clouds', 'description': 'broken clouds', 'icon': '04d'}]",stations,10000.0,1627737563.0,-14400.0,3899695.0,Ancud,200,-73.8203,-41.8697,273.89,271.45,273.89,273.89,1031.0,80.0,2.09,131.0,2.62,53.0,1.0,8512.0,CL,1627733105.0,1627768684.0,,1031.0,1025.0,
"[{'id': 800, 'main': 'Clear', 'description': 'clear sky', 'icon': '01d'}]",stations,10000.0,1627737563.0,-18000.0,3491161.0,Bull Savanna,200,-77.5902,17.8868,300.23,301.89,300.23,300.23,1016.0,67.0,3.53,68.0,5.95,0.0,,,JM,1627728519.0,1627775079.0,,1016.0,990.0,
"[{'id': 701, 'main': 'Mist', 'description': 'mist', 'icon': '50d'}]",stations,2000.0,1627737563.0,7200.0,847634.0,Rypefjord,200,23.6667,70.6333,281.41,278.31,281.41,281.41,996.0,100.0,5.66,350.0,,75.0,1.0,1632.0,NO,1627686830.0,1627768167.0,,,,
"[{'id': 802, 'main': 'Clouds', 'description': 'scattered clouds', 'icon': '03d'}]",stations,10000.0,1627737563.0,-14400.0,3572906.0,Andros Town,200,-77.7667,24.7,304.13,308.46,304.13,304.13,1019.0,62.0,3.72,125.0,3.68,27.0,1.0,7269.0,BS,1627727925.0,1627775758.0,,1019.0,1018.0,
"[{'id': 800, 'main': 'Clear', 'description': 'clear sky', 'icon': '01d'}]",stations,10000.0,1627737563.0,7200.0,1006984.0,East London,200,27.9116,-33.0153,298.67,298.09,298.67,298.67,1025.0,31.0,3.09,30.0,,0.0,1.0,1912.0,ZA,1627707590.0,1627745368.0,,,,
"[{'id': 500, 'main': 'Rain', 'description': 'light rain', 'icon': '10d'}]",stations,10000.0,1627737563.0,25200.0,1490256.0,Talnakh,200,88.3972,69.4865,289.79,289.52,289.79,289.79,1007.0,77.0,5.6,153.0,9.05,92.0,,,RU,1627674079.0,1627749848.0,0.34,1007.0,999.0,
"[{'id': 804, 'main': 'Clouds', 'description': 'overcast clouds', 'icon': '04n'}]",stations,10000.0,1627737564.0,39600.0,2126123.0,Chokurdakh,200,147.9167,70.6333,276.6,271.3,276.6,276.6,1008.0,82.0,8.02,331.0,13.4,100.0,,,RU,1627744013.0,1627824140.0,,1008.0,1004.0,
"[{'id': 804, 'main': 'Clouds', 'description': 'overcast clouds', 'icon': '04n'}]",stations,10000.0,1627737564.0,23400.0,1328121.0,Bogale,200,95.4,16.2833,299.96,303.17,299.96,299.96,1007.0,88.0,3.69,238.0,8.69,100.0,,,MM,1627687134.0,1627733431.0,,1007.0,1006.0,
"[{'id': 804, 'main': 'Clouds', 'description': 'overcast clouds', 'icon': '04d'}]",stations,10000.0,1627737564.0,-14400.0,4255151.0,Bud,200,-86.1758,39.447,291.81,291.9,290.47,293.27,1017.0,83.0,1.13,65.0,1.41,98.0,2.0,2006000.0,US,1627728220.0,1627779499.0,,1017.0,988.0,
"[{'id': 804, 'main': 'Clouds', 'description': 'overcast clouds', 'icon': '04d'}]",stations,10000.0,1627737564.0,-14400.0,3456288.0,Nioaque,200,-55.83,-21.1353,292.08,290.47,292.08,292.08,1023.0,17.0,3.2,84.0,5.87,100.0,,,BR,1627726500.0,1627766653.0,,1023.0,998.0,
"[{'id': 804, 'main': 'Clouds', 'description': 'overcast clouds', 'icon': '04n'}]",stations,10000.0,1627737564.0,-28800.0,5866583.0,Saint Paul Harbor,200,-152.4072,57.79,284.88,284.38,284.88,284.88,1020.0,87.0,0.0,0.0,,90.0,1.0,7668.0,US,1627740184.0,1627799325.0,,,,
"[{'id': 500, 'main': 'Rain', 'description': 'light rain', 'icon': '10d'}]",stations,10000.0,1627737564.0,0.0,2281120.0,Tabou,200,-7.3528,4.423,299.22,299.22,299.22,299.22,1015.0,79.0,5.22,200.0,6.0,86.0,,,CI,1627712782.0,1627757103.0,0.87,1015.0,1014.0,
"[{'id': 804, 'main': 'Clouds', 'description': 'overcast clouds', 'icon': '04n'}]",stations,10000.0,1627737565.0,28800.0,1819729.0,Hong Kong,200,114.1577,22.2855,302.91,309.91,302.01,303.36,999.0,86.0,0.89,312.0,2.24,99.0,2.0,2035800.0,HK,1627682083.0,1627729479.0,,,,
"[{'id': 500, 'main': 'Rain', 'description': 'light rain', 'icon': '10n'}]",stations,10000.0,1627737565.0,36000.0,2023584.0,Imeni Poliny Osipenko,200,136.4853,52.4201,282.52,279.63,282.52,282.52,1016.0,97.0,5.89,350.0,10.25,100.0,,,RU,1627672327.0,1627728518.0,0.63,1016.0,1007.0,
"[{'id': 804, 'main': 'Clouds', 'description': 'overcast clouds', 'icon': '04d'}]",stations,10000.0,1627737565.0,3600.0,2331447.0,Maiduguri,200,13.1603,11.8464,303.23,304.99,303.23,303.23,1012.0,54.0,3.35,201.0,3.95,100.0,,,NG,1627707254.0,1627752785.0,,1012.0,976.0,
"[{'id': 802, 'main': 'Clouds', 'description': 'scattered clouds', 'icon': '03d'}]",stations,10000.0,1627737565.0,14400.0,935215.0,Saint-Philippe,200,55.7679,-21.3585,295.98,296.3,295.9,296.05,1027.0,76.0,7.03,101.0,7.6,40.0,1.0,2127.0,RE,1627699746.0,1627739842.0,,1027.0,1020.0,
"[{'id': 501, 'main': 'Rain', 'description': 'moderate rain', 'icon': '10d'}]",stations,9490.0,1627737565.0,10800.0,330534.0,Mīzan Teferī,200,35.5833,6.9833,292.67,293.11,292.67,292.67,1015.0,93.0,0.83,246.0,2.03,100.0,,,ET,1627702271.0,1627747005.0,1.02,1015.0,857.0,
"[{'id': 701, 'main': 'Mist', 'description': 'mist', 'icon': '50d'}]",stations,9656.0,1627737565.0,-18000.0,4436743.0,Moss Point,200,-88.5345,30.4116,300.65,305.92,299.12,301.52,1017.0,94.0,0.0,0.0,,1.0,1.0,5398.0,US,1627729914.0,1627778937.0,,,,
"[{'id': 804, 'main': 'Clouds', 'description': 'overcast clouds', 'icon': '04d'}]",stations,10000.0,1627737565.0,-10800.0,3448892.0,São João da Ponte,200,-44.0078,-15.9292,292.54,292.13,292.54,292.54,1026.0,61.0,6.32,98.0,7.93,99.0,,,BR,1627723212.0,1627764267.0,,1026.0,945.0,
"[{'id': 800, 'main': 'Clear', 'description': 'clear sky', 'icon': '01n'}]",stations,10000.0,1627737566.0,28800.0,2020584.0,Magistral'nyy,200,107.4458,56.1725,291.44,290.47,291.44,291.44,1010.0,44.0,2.2,312.0,1.98,0.0,,,RU,1627678262.0,1627736521.0,,1010.0,964.0,
"[{'id': 803, 'main': 'Clouds', 'description': 'broken clouds', 'icon': '04d'}]",stations,10000.0,1627737566.0,-7200.0,3421765.0,Nanortalik,200,-45.2371,60.1432,281.5,279.86,281.5,281.5,1017.0,80.0,2.73,150.0,4.08,79.0,,,GL,1627713536.0,1627774533.0,,1017.0,1016.0,
"[{'id': 804, 'main': 'Clouds', 'description': 'overcast clouds', 'icon': '04d'}]",stations,10000.0,1627737566.0,-7200.0,3421193.0,Paamiut,200,-49.6678,61.994,281.65,278.82,281.65,281.65,1014.0,81.0,5.11,125.0,6.33,100.0,,,GL,1627713768.0,1627776428.0,,1014.0,1013.0,
"[{'id': 804, 'main': 'Clouds', 'description': 'overcast clouds', 'icon': '04d'}]",stations,10000.0,1627737566.0,28800.0,1529376.0,Korla,200,86.1469,41.7597,300.46,299.77,300.46,300.46,1003.0,30.0,8.69,16.0,9.79,100.0,,,CN,1627686492.0,1627738514.0,,1003.0,902.0,
"[{'id': 500, 'main': 'Rain', 'description': 'light rain', 'icon': '10d'}]",stations,10000.0,1627737566.0,10800.0,455406.0,Smiltene,200,25.9016,57.4244,292.9,292.71,292.9,295.82,1003.0,68.0,5.35,267.0,9.7,27.0,2.0,2039919.0,LV,1627697454.0,1627756470.0,0.48,1003.0,992.0,
"[{'id': 801, 'main': 'Clouds', 'description': 'few clouds', 'icon': '02n'}]",stations,10000.0,1627737566.0,32400.0,2112309.0,Katsuura,200,140.3,35.1333,298.44,299.27,298.25,300.99,1003.0,86.0,2.78,348.0,3.43,23.0,2.0,20334.0,JP,1627674410.0,1627724603.0,,1003.0,1003.0,
"[{'id': 803, 'main': 'Clouds', 'description': 'broken clouds', 'icon': '04n'}]",stations,10000.0,1627737567.0,36000.0,2013465.0,Verkhoyansk,200,133.385,67.5447,292.37,291.97,292.37,292.37,1014.0,62.0,2.56,4.0,2.63,81.0,,,RU,1627665841.0,1627736492.0,,1014.0,999.0,
"[{'id': 802, 'main': 'Clouds', 'description': 'scattered clouds', 'icon': '03d'}]",stations,10000.0,1627737325.0,-21600.0,6185377.0,Yellowknife,200,-114.3525,62.456,290.44,290.24,290.44,290.44,1018.0,77.0,3.6,160.0,,40.0,1.0,1007.0,CA,1627729091.0,1627792152.0,,,,
"[{'id': 804, 'main': 'Clouds', 'description': 'overcast clouds', 'icon': '04n'}]",stations,10000.0,1627737567.0,32400.0,2025099.0,Dauriya,200,116.8667,49.9333,285.86,285.12,285.86,285.86,1007.0,74.0,5.78,33.0,13.92,91.0,,,RU,1627677619.0,1627732643.0,,1007.0,929.0,
"[{'id': 804, 'main': 'Clouds', 'description': 'overcast clouds', 'icon': '04n'}]",stations,10000.0,1627737567.0,25200.0,1649150.0,Bengkulu,200,102.2655,-3.8004,299.14,299.14,299.14,299.14,1011.0,86.0,3.22,125.0,4.38,85.0,,,ID,1627687126.0,1627730143.0,,1011.0,1009.0,
"[{'id': 800, 'main': 'Clear', 'description': 'clear sky', 'icon': '01n'}]",stations,10000.0,1627737567.0,32400.0,2130741.0,Abashiri,200,144.2697,44.0213,293.32,293.82,293.32,293.32,1008.0,93.0,1.3,257.0,1.48,7.0,,,JP,1627672168.0,1627724941.0,,1008.0,1007.0,
"[{'id': 500, 'main': 'Rain', 'description': 'light rain', 'icon': '10n'}]",stations,10000.0,1627737567.0,25200.0,1507390.0,Dikson,200,80.5464,73.5069,282.24,279.04,282.24,282.24,1006.0,94.0,6.61,70.0,6.92,100.0,,,RU,0.0,0.0,0.12,1006.0,1000.0,
"[{'id': 803, 'main': 'Clouds', 'description': 'broken clouds', 'icon': '04d'}]",stations,10000.0,1627737567.0,-14400.0,4174600.0,Sweetwater,200,-80.3731,25.7634,303.19,309.56,301.15,304.83,1018.0,75.0,0.45,328.0,0.89,75.0,2.0,2011254.0,US,1627728445.0,1627776489.0,,,,
"[{'id': 500, 'main': 'Rain', 'description': 'light rain', 'icon': '10d'}]",stations,10000.0,1627737568.0,7200.0,371466.0,Leer,200,30.1418,8.3018,299.48,299.48,299.48,299.48,1012.0,78.0,1.27,304.0,1.86,75.0,,,SS,1627703470.0,1627748418.0,0.18,1012.0,968.0,
"[{'id': 803, 'main': 'Clouds', 'description': 'broken clouds', 'icon': '04d'}]",stations,10000.0,1627737568.0,-21600.0,4021858.0,Guerrero Negro,200,-114.0611,27.9769,293.98,294.36,293.98,293.98,1014.0,86.0,2.15,303.0,2.27,67.0,,,MX,1627736306.0,1627784798.0,,1014.0,1014.0,
"[{'id': 800, 'main': 'Clear', 'description': 'clear sky', 'icon': '01d'}]",stations,10000.0,1627737568.0,10800.0,293842.0,Kiryat Gat,200,34.7642,31.61,305.4,304.13,303.2,308.93,1004.0,29.0,5.76,313.0,4.54,0.0,2.0,2009987.0,IL,1627700174.0,1627749495.0,,1004.0,989.0,
"[{'id': 803, 'main': 'Clouds', 'description': 'broken clouds', 'icon': '04n'}]",stations,10000.0,1627737568.0,19800.0,1242110.0,Kalmunai,200,81.8167,7.4167,301.92,306.28,301.92,301.92,1008.0,75.0,5.51,147.0,7.33,73.0,,,LK,1627691139.0,1627735946.0,,1008.0,1007.0,
"[{'id': 804, 'main': 'Clouds', 'description': 'overcast clouds', 'icon': '04d'}]",stations,10000.0,1627737568.0,-18000.0,3529654.0,Dzilam González,200,-88.9333,21.2833,298.37,299.4,298.37,298.37,1017.0,94.0,1.79,92.0,4.66,87.0,,,MX,1627730933.0,1627778110.0,,1017.0,1016.0,
"[{'id': 802, 'main': 'Clouds', 'description': 'scattered clouds', 'icon': '03d'}]",stations,10000.0,1627737568.0,7200.0,3145148.0,Myre,200,15.9492,69.1036,282.12,279.82,282.12,283.16,1000.0,73.0,4.13,10.0,4.18,47.0,1.0,1603.0,NO,1627692184.0,1627766516.0,,1000.0,999.0,
"[{'id': 803, 'main': 'Clouds', 'description': 'broken clouds', 'icon': '04d'}]",stations,10000.0,1627737569.0,7200.0,2685750.0,Östersund,200,14.6357,63.1792,287.4,286.29,287.4,288.49,998.0,54.0,3.6,280.0,,75.0,1.0,1774.0,SE,1627697688.0,1627761643.0,,,,
"[{'id': 800, 'main': 'Clear', 'description': 'clear sky', 'icon': '01d'}]",stations,10000.0,1627737569.0,10800.0,703317.0,Lazurne,200,32.5295,46.084,305.07,307.61,305.07,305.4,1010.0,51.0,3.88,257.0,3.77,1.0,2.0,2034748.0,UA,1627698645.0,1627752097.0,,1010.0,1010.0,
"[{'id': 804, 'main': 'Clouds', 'description': 'overcast clouds', 'icon': '04d'}]",stations,10000.0,1627737569.0,-14400.0,3922037.0,Caranavi,200,-67.55,-15.8167,287.86,287.34,287.86,287.86,1022.0,75.0,0.14,325.0,0.42,96.0,,,BO,1627728851.0,1627769928.0,,1022.0,888.0,
"[{'id': 800, 'main': 'Clear', 'description': 'clear sky', 'icon': '01d'}]",stations,10000.0,1627737347.0,-10800.0,3430863.0,Mar del Plata,200,-57.5575,-38.0023,279.84,279.84,277.16,283.71,1024.0,68.0,0.45,234.0,4.47,0.0,2.0,264934.0,AR,1627728684.0,1627765299.0,,,,
"[{'id': 800, 'main': 'Clear', 'description': 'clear sky', 'icon': '01d'}]",stations,10000.0,1627737569.0,18000.0,1181611.0,Chaman,200,66.4512,30.9236,307.3,304.75,307.3,307.3,1000.0,11.0,7.95,253.0,7.31,0.0,,,PK,1627692644.0,1627741816.0,,1000.0,864.0,
"[{'id': 804, 'main': 'Clouds', 'description': 'overcast clouds', 'icon': '04d'}]",stations,10000.0,1627737569.0,10800.0,103630.0,Najrān,200,44.1277,17.4924,310.51,310.36,310.51,310.51,1005.0,26.0,11.95,328.0,10.92,90.0,1.0,7421.0,SA,1627699335.0,1627745840.0,,1005.0,870.0,
"[{'id': 801, 'main': 'Clouds', 'description': 'few clouds', 'icon': '02d'}]",stations,10000.0,1627737569.0,0.0,3372707.0,Ribeira Grande,200,-28.7,38.5167,297.37,297.88,297.37,297.37,1031.0,78.0,3.09,200.0,,20.0,1.0,6883.0,PT,1627714548.0,1627765584.0,,,,
"[{'id': 802, 'main': 'Clouds', 'description': 'scattered clouds', 'icon': '03d'}]",stations,10000.0,1627737570.0,-3600.0,3374210.0,São Filipe,200,-24.4956,14.8961,298.09,298.83,298.09,298.09,1015.0,84.0,4.17,8.0,4.1,26.0,,,CV,1627716035.0,1627762079.0,,1015.0,1004.0,
"[{'id': 803, 'main': 'Clouds', 'description': 'broken clouds', 'icon': '04d'}]",stations,10000.0,1627737570.0,-14400.0,3628473.0,San Cristobal,200,-72.225,7.7669,297.25,297.91,297.25,297.25,1018.0,84.0,2.44,132.0,4.13,76.0,1.0,8587.0,VE,1627728084.0,1627772939.0,,1018.0,916.0,
"[{'id': 804, 'main': 'Clouds', 'description': 'overcast clouds', 'icon': '04n'}]",stations,10000.0,1627737570.0,43200.0,2122090.0,Pevek,200,170.3133,69.7008,274.07,272.54,274.07,274.07,1006.0,82.0,1.44,99.0,1.61,100.0,,,RU,1627740798.0,1627816605.0,,1006.0,1000.0,
"[{'id': 801, 'main': 'Clouds', 'description': 'few clouds', 'icon': '02d'}]",stations,10000.0,1627737570.0,-21600.0,5486795.0,Raton,200,-104.4391,36.9034,292.59,292.21,288.74,293.18,1026.0,62.0,3.09,40.0,,20.0,2.0,2002857.0,US,1627732953.0,1627783533.0,,,,
"[{'id': 804, 'main': 'Clouds', 'description': 'overcast clouds', 'icon': '04d'}]",stations,10000.0,1627737570.0,25200.0,1503037.0,Kodinsk,200,99.1844,58.6881,291.68,291.16,291.68,291.68,1015.0,60.0,1.34,284.0,1.4,100.0,,,RU,1627679392.0,1627739357.0,,1015.0,996.0,
"[{'id': 701, 'main': 'Mist', 'description': 'mist', 'icon': '50d'}]",stations,7000.0,1627737570.0,0.0,3412093.0,Vestmannaeyjar,200,-20.2734,63.4427,285.7,285.28,285.7,285.7,1015.0,87.0,8.23,120.0,,90.0,1.0,93.0,IS,1627705935.0,1627770152.0,,,,
"[{'id': 802, 'main': 'Clouds', 'description': 'scattered clouds', 'icon': '03d'}]",stations,10000.0,1627737571.0,10800.0,696280.0,Primorskoye,200,37.6927,47.1744,300.85,307.59,300.85,300.85,1009.0,100.0,2.37,292.0,4.04,38.0,2.0,2029895.0,UA,1627697201.0,1627751063.0,,1009.0,1008.0,
"[{'id': 800, 'main': 'Clear', 'description': 'clear sky', 'icon': '01n'}]",stations,10000.0,1627737548.0,36000.0,2174003.0,Brisbane,200,153.0281,-27.4679,287.42,287.04,285.46,289.74,1018.0,82.0,0.45,303.0,0.45,0.0,2.0,2005393.0,AU,1627676991.0,1627715913.0,,,,
"[{'id': 804, 'main': 'Clouds', 'description': 'overcast clouds', 'icon': '04n'}]",stations,10000.0,1627737571.0,28800.0,1727792.0,Balud,200,123.6953,10.1476,301.28,305.1,301.28,301.28,1010.0,77.0,3.42,250.0,6.23,100.0,,,PH,1627680864.0,1627726120.0,,1010.0,1009.0,
,,,,,,,404,,,,,,,,,,,,,,,,,,,,,city not found
"[{'id': 802, 'main': 'Clouds', 'description': 'scattered clouds', 'icon': '03d'}]",stations,10000.0,1627737422.0,16200.0,1160571.0,Khāsh,200,61.2158,28.2211,308.49,305.82,308.49,308.49,1000.0,11.0,5.09,4.0,6.59,43.0,,,IR,1627694197.0,1627742776.0,,1000.0,858.0,
"[{'id': 804, 'main': 'Clouds', 'description': 'overcast clouds', 'icon': '04d'}]",stations,10000.0,1627737571.0,10800.0,186180.0,Moyale,200,39.0584,3.5167,298.95,298.53,298.95,298.95,1014.0,36.0,8.68,177.0,9.21,96.0,,,KE,1627701715.0,1627745893.0,,1014.0,898.0,
"[{'id': 500, 'main': 'Rain', 'description': 'light rain', 'icon': '10n'}]",stations,10000.0,1627737571.0,39600.0,2109528.0,Buala,200,159.5921,-8.145,299.13,299.13,299.13,299.13,1012.0,86.0,3.86,136.0,5.07,100.0,,,SB,1627760105.0,1627802444.0,0.75,1012.0,1009.0,
,,,,,,,404,,,,,,,,,,,,,,,,,,,,,city not found
"[{'id': 800, 'main': 'Clear', 'description': 'clear sky', 'icon': '01n'}]",stations,10000.0,1627737572.0,28800.0,2071860.0,Esperance,200,121.9,-33.8667,283.59,282.33,283.59,283.59,1011.0,63.0,8.45,312.0,14.15,7.0,,,AU,1627685142.0,1627722704.0,,1011.0,1011.0,
"[{'id': 800, 'main': 'Clear', 'description': 'clear sky', 'icon': '01d'}]",stations,10000.0,1627737572.0,10800.0,487928.0,Novikovo,200,37.8879,51.1537,303.62,302.62,303.62,303.62,1010.0,33.0,2.75,303.0,3.31,9.0,,,RU,1627696319.0,1627751852.0,,1010.0,996.0,
"[{'id': 804, 'main': 'Clouds', 'description': 'overcast clouds', 'icon': '04d'}]",stations,10000.0,1627737572.0,-18000.0,4013679.0,Coahuayana Viejo,200,-103.6833,18.7333,299.86,303.07,299.86,299.86,1013.0,90.0,1.67,63.0,1.64,100.0,1.0,7116.0,MX,1627734707.0,1627781416.0,,1013.0,1011.0,
"[{'id': 800, 'main': 'Clear', 'description': 'clear sky', 'icon': '01n'}]",stations,10000.0,1627737572.0,28800.0,1789647.0,Xichang,200,102.2634,27.8964,292.56,292.62,292.56,292.56,1007.0,79.0,1.91,108.0,1.99,6.0,,,CN,1627684376.0,1627732895.0,,1007.0,843.0,
"[{'id': 802, 'main': 'Clouds', 'description': 'scattered clouds', 'icon': '03d'}]",stations,10000.0,1627737572.0,-21600.0,6050066.0,La Ronge,200,-105.2842,55.1001,289.29,288.97,289.27,289.29,1026.0,77.0,1.54,310.0,,40.0,1.0,696.0,CA,1627729703.0,1627787188.0,,,,
"[{'id': 804, 'main': 'Clouds', 'description': 'overcast clouds', 'icon': '04d'}]",stations,10000.0,1627737572.0,-25200.0,5710360.0,Winnemucca,200,-117.7357,40.973,292.18,292.28,292.1,292.18,1022.0,82.0,2.06,90.0,,90.0,1.0,6249.0,US,1627735577.0,1627787290.0,,,,
"[{'id': 804, 'main': 'Clouds', 'description': 'overcast clouds', 'icon': '04d'}]",stations,10000.0,1627737573.0,-7200.0,3424607.0,Tasiilaq,200,-37.6368,65.6145,286.24,285.59,286.24,286.24,1015.0,76.0,0.68,288.0,1.1,100.0,1.0,81.0,GL,1627708702.0,1627775720.0,,1015.0,1010.0,
,,,,,,,404,,,,,,,,,,,,,,,,,,,,,city not found
"[{'id': 801, 'main': 'Clouds', 'description': 'few clouds', 'icon': '02d'}]",stations,10000.0,1627737573.0,-21600.0,5601615.0,Mountain Home,200,-115.6912,43.133,295.01,295.03,293.27,298.56,1019.0,68.0,2.57,150.0,,20.0,1.0,5002.0,US,1627734751.0,1627787135.0,,,,
"[{'id': 802, 'main': 'Clouds', 'description': 'scattered clouds', 'icon': '03d'}]",stations,10000.0,1627737573.0,7200.0,3129135.0,Avilés,200,-5.9248,43.5547,292.93,292.53,292.55,293.11,1020.0,60.0,3.58,0.0,4.92,40.0,2.0,2001020.0,ES,1627708319.0,1627760881.0,,,,
"[{'id': 803, 'main': 'Clouds', 'description': 'broken clouds', 'icon': '04n'}]",stations,10000.0,1627737351.0,7200.0,2729907.0,Longyearbyen,200,15.6401,78.2186,280.06,276.81,280.06,280.06,1009.0,76.0,5.14,100.0,,75.0,1.0,1663.0,SJ,0.0,0.0,,,,
"[{'id': 721, 'main': 'Haze', 'description': 'haze', 'icon': '50d'}]",stations,10000.0,1627737573.0,-18000.0,4449620.0,Vicksburg,200,-90.8779,32.3526,300.75,305.95,298.28,301.97,1017.0,92.0,0.0,0.0,,1.0,1.0,6181.0,US,1627730257.0,1627779719.0,,,,
"[{'id': 804, 'main': 'Clouds', 'description': 'overcast clouds', 'icon': '04d'}]",stations,8906.0,1627737574.0,10800.0,105298.0,Jizan,200,42.6667,17.3333,307.67,312.71,307.67,307.67,1006.0,50.0,3.47,286.0,3.92,100.0,1.0,7407.0,SA,1627699700.0,1627746177.0,,1006.0,997.0,
"[{'id': 802, 'main': 'Clouds', 'description': 'scattered clouds', 'icon': '03d'}]",stations,10000.0,1627737574.0,14400.0,934322.0,Mahébourg,200,57.7,-20.4081,296.31,296.35,296.07,296.31,1025.0,64.0,4.63,120.0,,40.0,1.0,2061.0,MU,1627699197.0,1627739464.0,,,,
"[{'id': 801, 'main': 'Clouds', 'description': 'few clouds', 'icon': '02n'}]",stations,4282.0,1627737574.0,32400.0,2015306.0,Tiksi,200,128.8694,71.6872,279.04,279.04,279.04,279.04,1020.0,79.0,0.87,47.0,0.89,19.0,,,RU,0.0,0.0,,1020.0,1015.0,
"[{'id': 804, 'main': 'Clouds', 'description': 'overcast clouds', 'icon': '04d'}]",stations,10000.0,1627737574.0,0.0,2367164.0,Dapaong,200,0.205,10.8639,296.71,297.39,296.71,296.71,1014.0,87.0,5.48,204.0,8.5,100.0,,,TG,1627710446.0,1627755812.0,,1014.0,976.0,
"[{'id': 800, 'main': 'Clear', 'description': 'clear sky', 'icon': '01d'}]",stations,10000.0,1627737574.0,7200.0,352733.0,Marsá Maţrūḩ,200,27.2453,31.3525,304.3,307.81,304.3,304.3,1005.0,58.0,7.84,323.0,9.65,0.0,,,EG,1627702009.0,1627751269.0,,1005.0,1005.0,
"[{'id': 800, 'main': 'Clear', 'description': 'clear sky', 'icon': '01d'}]",stations,10000.0,1627737574.0,-21600.0,5710035.0,West Wendover,200,-114.0733,40.7391,294.71,294.7,294.71,294.71,1022.0,68.0,2.06,50.0,,1.0,1.0,3994.0,US,1627734732.0,1627786377.0,,,,
"[{'id': 804, 'main': 'Clouds', 'description': 'overcast clouds', 'icon': '04d'}]",stations,10000.0,1627737575.0,10800.0,556268.0,Ostrovnoy,200,39.5131,68.0531,282.67,280.26,282.67,282.67,997.0,90.0,4.7,76.0,6.48,100.0,,,RU,1627687891.0,1627759499.0,,997.0,995.0,
"[{'id': 804, 'main': 'Clouds', 'description': 'overcast clouds', 'icon': '04d'}]",stations,10000.0,1627737575.0,3600.0,2641434.0,Northam,200,-4.2167,51.0333,290.13,290.29,289.05,293.38,1011.0,92.0,5.38,276.0,6.6,85.0,2.0,2005965.0,GB,1627706462.0,1627761918.0,,1011.0,1004.0,
"[{'id': 800, 'main': 'Clear', 'description': 'clear sky', 'icon': '01d'}]",stations,10000.0,1627737575.0,10800.0,1082243.0,Ambilobe,200,49.05,-13.2,302.02,301.46,302.02,302.02,1017.0,38.0,0.15,273.0,3.74,2.0,,,MG,1627700655.0,1627742158.0,,1017.0,1013.0,
,,,,,,,404,,,,,,,,,,,,,,,,,,,,,city not found
"[{'id': 800, 'main': 'Clear', 'description': 'clear sky', 'icon': '01d'}]",stations,10000.0,1627737575.0,10800.0,1058381.0,Morondava,200,44.2833,-20.2833,300.91,301.17,300.91,300.91,1019.0,48.0,6.54,235.0,8.87,0.0,,,MG,1627702405.0,1627742696.0,,1019.0,1019.0,
"[{'id': 804, 'main': 'Clouds', 'description': 'overcast clouds', 'icon': '04d'}]",stations,10000.0,1627737575.0,0.0,2412408.0,Nioro,200,-15.75,13.35,300.97,304.25,300.97,300.97,1014.0,76.0,3.48,329.0,3.84,100.0,,,GM,1627714067.0,1627759849.0,,1014.0,1010.0,
"[{'id': 800, 'main': 'Clear', 'description': 'clear sky', 'icon': '01d'}]",stations,10000.0,1627737575.0,-28800.0,5861897.0,Fairbanks,200,-147.7164,64.8378,285.48,284.99,282.34,287.49,1014.0,85.0,2.57,90.0,,1.0,2.0,2017395.0,US,1627735732.0,1627801526.0,,,,
,,,,,,,404,,,,,,,,,,,,,,,,,,,,,city not found
"[{'id': 803, 'main': 'Clouds', 'description': 'broken clouds', 'icon': '04n'}]",stations,10000.0,1627737576.0,34200.0,6355222.0,Yulara,200,130.9889,-25.2406,294.06,293.17,294.06,294.06,1014.0,37.0,5.14,240.0,,75.0,1.0,9487.0,AU,1627682060.0,1627721423.0,,,,
"[{'id': 800, 'main': 'Clear', 'description': 'clear sky', 'icon': '01d'}]",stations,10000.0,1627737576.0,-10800.0,3435264.0,Concepción del Uruguay,200,-58.2372,-32.4825,283.27,282.11,282.49,283.7,1031.0,68.0,0.89,45.0,2.68,0.0,2.0,2019376.0,AR,1627728196.0,1627766113.0,,,,
"[{'id': 800, 'main': 'Clear', 'description': 'clear sky', 'icon': '01n'}]",stations,10000.0,1627737576.0,36000.0,2090021.0,Namatanai,200,152.4333,-3.6667,299.44,299.44,299.44,299.44,1012.0,81.0,2.56,136.0,3.1,4.0,,,PG,1627675076.0,1627718114.0,,1012.0,1006.0,
"[{'id': 803, 'main': 'Clouds', 'description': 'broken clouds', 'icon': '04d'}]",stations,10000.0,1627737576.0,10800.0,107304.0,Buraidah,200,43.975,26.326,315.4,311.44,315.4,315.4,999.0,6.0,1.17,312.0,3.21,70.0,1.0,7411.0,SA,1627698534.0,1627746715.0,,999.0,935.0,
"[{'id': 800, 'main': 'Clear', 'description': 'clear sky', 'icon': '01d'}]",stations,10000.0,1627737577.0,7200.0,2995468.0,Arrondissement de Marseille,200,5.5,43.3333,301.26,301.13,299.04,304.21,1006.0,43.0,4.47,236.0,6.71,0.0,2.0,80238.0,FR,1627705612.0,1627758105.0,,,,
"[{'id': 804, 'main': 'Clouds', 'description': 'overcast clouds', 'icon': '04d'}]",stations,10000.0,1627737577.0,18000.0,1489853.0,Tazovsky,200,78.7,67.4667,287.27,286.54,287.27,287.27,1005.0,69.0,4.24,167.0,6.7,100.0,,,RU,1627679090.0,1627749491.0,,1005.0,1001.0,
"[{'id': 804, 'main': 'Clouds', 'description': 'overcast clouds', 'icon': '04d'}]",stations,10000.0,1627737577.0,-10800.0,3467452.0,Canoinhas,200,-50.39,-26.1772,281.03,280.37,281.03,281.03,1032.0,62.0,1.51,94.0,3.89,100.0,,,BR,1627725664.0,1627764878.0,,1032.0,940.0,
"[{'id': 502, 'main': 'Rain', 'description': 'heavy intensity rain', 'icon': '10n'}]",stations,9000.0,1627737306.0,28800.0,1735106.0,George Town,200,100.3354,5.4112,301.41,306.08,300.9,301.42,1012.0,81.0,1.54,60.0,,20.0,2.0,2037578.0,MY,1627686857.0,1627731340.0,5.62,,,
"[{'id': 804, 'main': 'Clouds', 'description': 'overcast clouds', 'icon': '04d'}]",stations,1170.0,1627737577.0,-14400.0,5924351.0,Clyde River,200,-68.5914,70.4692,276.95,276.95,276.95,276.95,1014.0,87.0,1.08,19.0,1.29,100.0,,,CA,1627709774.0,1627789505.0,,1014.0,1014.0,
"[{'id': 802, 'main': 'Clouds', 'description': 'scattered clouds', 'icon': '03d'}]",stations,10000.0,1627737555.0,3600.0,2648404.0,Gloucester,200,-2.2431,51.8657,292.91,292.77,290.57,295.42,1009.0,70.0,3.6,260.0,,40.0,1.0,1363.0,GB,1627705793.0,1627761640.0,,,,
"[{'id': 804, 'main': 'Clouds', 'description': 'overcast clouds', 'icon': '04n'}]",stations,10000.0,1627737577.0,28800.0,2027196.0,Balakhninskiy,200,114.2769,58.0106,289.62,288.68,289.62,289.62,1014.0,52.0,4.28,70.0,11.67,90.0,,,RU,1627676011.0,1627735494.0,,1014.0,969.0,
"[{'id': 801, 'main': 'Clouds', 'description': 'few clouds', 'icon': '02d'}]",stations,10000.0,1627737578.0,-18000.0,3671497.0,Puerto Colombia,200,-74.9547,10.9878,302.2,307.81,302.2,302.2,1011.0,79.0,2.68,99.0,3.53,17.0,1.0,8584.0,CO,1627728476.0,1627773857.0,,1011.0,1010.0,
"[{'id': 804, 'main': 'Clouds', 'description': 'overcast clouds', 'icon': '04d'}]",stations,6000.0,1627737578.0,14400.0,286621.0,Salalah,200,54.0924,17.0151,299.2,299.2,299.2,299.2,1005.0,89.0,5.14,180.0,,90.0,1.0,7562.0,OM,1627696985.0,1627743407.0,,,,
"[{'id': 800, 'main': 'Clear', 'description': 'clear sky', 'icon': '01d'}]",stations,10000.0,1627737578.0,7200.0,359796.0,Suez,200,32.5263,29.9737,311.96,310.18,311.96,311.96,1002.0,17.0,2.29,34.0,3.19,0.0,,,EG,1627700896.0,1627749848.0,,1002.0,1001.0,
"[{'id': 800, 'main': 'Clear', 'description': 'clear sky', 'icon': '01d'}]",stations,10000.0,1627737578.0,-14400.0,5962442.0,Goderich,200,-81.7165,43.7501,288.36,287.95,287.06,289.21,1018.0,77.0,3.6,140.0,,9.0,1.0,253.0,CA,1627726491.0,1627779088.0,,,,
"[{'id': 803, 'main': 'Clouds', 'description': 'broken clouds', 'icon': '04d'}]",stations,10000.0,1627737578.0,-14400.0,3662342.0,São Gabriel da Cachoeira,200,-67.0892,-0.1303,296.04,296.68,296.04,296.04,1018.0,88.0,2.57,280.0,,75.0,1.0,8449.0,BR,1627727480.0,1627771078.0,,,,
"[{'id': 801, 'main': 'Clouds', 'description': 'few clouds', 'icon': '02d'}]",stations,10000.0,1627737578.0,18000.0,1513491.0,Yangi Marg`ilon,200,71.7189,40.4272,307.55,305.2,305.83,307.55,1004.0,16.0,3.09,340.0,,14.0,1.0,9014.0,UZ,1627690159.0,1627741773.0,,,,
"[{'id': 803, 'main': 'Clouds', 'description': 'broken clouds', 'icon': '04d'}]",stations,10000.0,1627737579.0,3600.0,2644037.0,Llangefni,200,-4.3106,53.2556,291.04,290.84,288.51,292.1,1009.0,75.0,5.66,240.0,,75.0,1.0,1432.0,GB,1627705943.0,1627762482.0,,,,
"[{'id': 800, 'main': 'Clear', 'description': 'clear sky', 'icon': '01n'}]",stations,10000.0,1627737579.0,36000.0,2155562.0,Nelson Bay,200,152.15,-32.7167,286.24,285.41,284.18,290.2,1011.0,69.0,4.12,16.0,5.31,0.0,1.0,9605.0,AU,1627677755.0,1627715570.0,,1011.0,1011.0,
"[{'id': 804, 'main': 'Clouds', 'description': 'overcast clouds', 'icon': '04n'}]",stations,10000.0,1627737579.0,28800.0,1695546.0,Pandan,200,124.1694,14.0453,301.71,306.51,301.71,301.71,1008.0,79.0,5.34,220.0,8.96,100.0,,,PH,1627680422.0,1627726334.0,,1008.0,1008.0,
"[{'id': 804, 'main': 'Clouds', 'description': 'overcast clouds', 'icon': '04n'}]",stations,8568.0,1627737579.0,39600.0,2121385.0,Severo-Kuril'sk,200,156.125,50.6789,284.9,284.64,284.9,284.9,1010.0,96.0,1.91,125.0,3.22,100.0,,,RU,1627754509.0,1627809704.0,,1010.0,1009.0,
"[{'id': 800, 'main': 'Clear', 'description': 'clear sky', 'icon': '01d'}]",stations,10000.0,1627737579.0,-10800.0,3381041.0,Mana,200,-53.7767,5.6592,301.25,304.58,301.25,301.25,1016.0,74.0,1.5,119.0,2.5,5.0,,,GF,1627723826.0,1627768342.0,,1016.0,1016.0,
"[{'id': 804, 'main': 'Clouds', 'description': 'overcast clouds', 'icon': '04d'}]",stations,10000.0,1627737579.0,19800.0,1260488.0,Panhāla,200,74.1167,16.8167,294.17,294.65,294.17,294.17,1010.0,89.0,6.68,265.0,13.05,85.0,,,IN,1627692196.0,1627738585.0,,1010.0,919.0,
"[{'id': 802, 'main': 'Clouds', 'description': 'scattered clouds', 'icon': '03d'}]",stations,10000.0,1627737579.0,25200.0,1489822.0,Tegul'det,200,88.1667,57.3064,292.99,292.67,292.99,292.99,1014.0,63.0,1.64,179.0,1.82,48.0,,,RU,1627682529.0,1627741508.0,,1014.0,999.0,
,,,,,,,404,,,,,,,,,,,,,,,,,,,,,city not found
,,,,,,,404,,,,,,,,,,,,,,,,,,,,,city not found
"[{'id': 803, 'main': 'Clouds', 'description': 'broken clouds', 'icon': '04d'}]",stations,10000.0,1627737580.0,0.0,2303611.0,Esim,200,-2.2405,4.8699,300.62,302.72,300.62,300.62,1015.0,69.0,4.54,206.0,4.87,60.0,,,GH,1627711519.0,1627755912.0,,1015.0,1013.0,
,,,,,,,404,,,,,,,,,,,,,,,,,,,,,city not found
"[{'id': 804, 'main': 'Clouds', 'description': 'overcast clouds', 'icon': '04d'}]",stations,10000.0,1627737580.0,-14400.0,5983720.0,Iqaluit,200,-68.5145,63.7506,286.87,285.6,286.87,287.0,1010.0,50.0,3.58,80.0,,90.0,2.0,47658.0,CA,1627717359.0,1627781883.0,,,,
,,,,,,,404,,,,,,,,,,,,,,,,,,,,,city not found
"[{'id': 500, 'main': 'Rain', 'description': 'light rain', 'icon': '10n'}]",stations,10000.0,1627737581.0,-39600.0,4036284.0,Alofi,200,-169.9187,-19.0595,299.09,300.06,299.09,299.09,1007.0,89.0,5.14,350.0,,100.0,1.0,7306.0,NU,1627753690.0,1627794224.0,0.11,,,
"[{'id': 804, 'main': 'Clouds', 'description': 'overcast clouds', 'icon': '04d'}]",stations,10000.0,1627737581.0,-10800.0,3466980.0,Caravelas,200,-39.2481,-17.7125,295.22,295.05,295.22,295.22,1028.0,60.0,5.73,164.0,8.31,100.0,,,BR,1627722222.0,1627762973.0,,1028.0,1027.0,
"[{'id': 802, 'main': 'Clouds', 'description': 'scattered clouds', 'icon': '03d'}]",stations,10000.0,1627737581.0,18000.0,1179515.0,Duki,200,68.5728,30.1541,309.41,308.76,309.41,309.41,997.0,26.0,6.94,210.0,5.98,35.0,,,PK,1627692221.0,1627741221.0,,997.0,885.0,
"[{'id': 802, 'main': 'Clouds', 'description': 'scattered clouds', 'icon': '03d'}]",stations,10000.0,1627737400.0,-14400.0,3571592.0,Rock Sound,200,-76.2,24.9,301.5,304.82,301.5,301.5,1019.0,72.0,3.91,125.0,3.96,47.0,,,BS,1627727529.0,1627775402.0,,1019.0,1018.0,
"[{'id': 802, 'main': 'Clouds', 'description': 'scattered clouds', 'icon': '03d'}]",stations,10000.0,1627737581.0,10800.0,686090.0,Asău,200,26.4,46.4333,302.59,303.68,302.57,306.7,1008.0,52.0,1.11,160.0,3.41,27.0,2.0,2033571.0,RO,1627700053.0,1627753631.0,,,,
"[{'id': 500, 'main': 'Rain', 'description': 'light rain', 'icon': '10n'}]",stations,10000.0,1627737144.0,36000.0,2172880.0,Byron Bay,200,153.6167,-28.65,288.14,287.94,287.52,289.21,1017.0,86.0,6.26,345.0,9.66,0.0,2.0,2032240.0,AU,1627676970.0,1627715652.0,0.27,1017.0,1016.0,
"[{'id': 804, 'main': 'Clouds', 'description': 'overcast clouds', 'icon': '04d'}]",stations,10000.0,1627737582.0,10800.0,64013.0,Bosaso,200,49.1816,11.2842,304.73,307.69,304.73,304.73,1006.0,54.0,3.71,333.0,3.85,99.0,,,SO,1627698655.0,1627744095.0,,1006.0,1004.0,
"[{'id': 803, 'main': 'Clouds', 'description': 'broken clouds', 'icon': '04d'}]",stations,10000.0,1627737582.0,18000.0,610091.0,Chingirlau,200,54.0814,51.095,307.55,305.54,307.55,307.55,1008.0,20.0,5.89,278.0,7.81,81.0,,,KZ,1627692442.0,1627747956.0,,1008.0,997.0,
,,,,,,,404,,,,,,,,,,,,,,,,,,,,,city not found
"[{'id': 801, 'main': 'Clouds', 'description': 'few clouds', 'icon': '02d'}]",stations,10000.0,1627737582.0,7200.0,359792.0,Aswān,200,32.907,24.0934,314.84,311.59,314.84,314.84,1002.0,9.0,5.33,314.0,6.12,12.0,,,EG,1627701414.0,1627749147.0,,1002.0,991.0,
"[{'id': 500, 'main': 'Rain', 'description': 'light rain', 'icon': '10n'}]",stations,2408.0,1627737582.0,43200.0,2181625.0,Te Anau,200,167.7167,-45.4167,281.12,281.12,281.12,281.12,1011.0,98.0,0.19,135.0,0.31,100.0,,,NZ,1627762053.0,1627796597.0,1.0,1011.0,985.0,
"[{'id': 803, 'main': 'Clouds', 'description': 'broken clouds', 'icon': '04n'}]",stations,10000.0,1627737582.0,28800.0,2070998.0,Geraldton,200,114.6,-28.7667,288.38,287.47,288.22,288.38,1019.0,58.0,6.17,280.0,,75.0,1.0,9522.0,AU,1627686341.0,1627725008.0,,,,
"[{'id': 802, 'main': 'Clouds', 'description': 'scattered clouds', 'icon': '03d'}]",stations,10000.0,1627737582.0,-18000.0,4726521.0,San Patricio,200,-97.5169,28.017,300.64,303.89,298.38,302.09,1017.0,79.0,2.68,186.0,5.2,31.0,2.0,2040001.0,US,1627732329.0,1627780834.0,,1017.0,1015.0,
"[{'id': 804, 'main': 'Clouds', 'description': 'overcast clouds', 'icon': '04d'}]",stations,10000.0,1627737583.0,3600.0,2427336.0,Moussoro,200,16.4901,13.6408,303.82,306.42,303.82,303.82,1011.0,56.0,5.06,223.0,5.05,98.0,,,TD,1627706304.0,1627752137.0,,1011.0,978.0,
"[{'id': 804, 'main': 'Clouds', 'description': 'overcast clouds', 'icon': '04d'}]",stations,10000.0,1627737583.0,7200.0,777019.0,Vardø,200,31.1107,70.3705,283.26,282.68,283.26,283.26,998.0,90.0,7.52,121.0,8.59,100.0,1.0,1682.0,NO,1627685932.0,1627765492.0,,998.0,997.0,
"[{'id': 802, 'main': 'Clouds', 'description': 'scattered clouds', 'icon': '03d'}]",stations,10000.0,1627737583.0,18000.0,1163054.0,Turbat,200,63.044,26.0023,309.28,314.06,309.28,309.28,998.0,44.0,7.21,189.0,6.24,45.0,,,PK,1627693988.0,1627742107.0,,998.0,982.0,
"[{'id': 804, 'main': 'Clouds', 'description': 'overcast clouds', 'icon': '04d'}]",stations,10000.0,1627737583.0,-10800.0,3386213.0,Touros,200,-35.4608,-5.1989,300.65,301.89,300.65,300.65,1018.0,60.0,7.67,142.0,9.84,100.0,1.0,8452.0,BR,1627720289.0,1627763088.0,,1018.0,1017.0,
"[{'id': 800, 'main': 'Clear', 'description': 'clear sky', 'icon': '01d'}]",stations,10000.0,1627737583.0,10800.0,94298.0,Kifrī,200,44.9661,34.6959,317.26,313.62,317.26,317.26,995.0,8.0,1.39,243.0,2.54,0.0,,,IQ,1627697357.0,1627747416.0,,995.0,971.0,
,,,,,,,404,,,,,,,,,,,,,,,,,,,,,city not found
"[{'id': 803, 'main': 'Clouds', 'description': 'broken clouds', 'icon': '04d'}]",stations,10000.0,1627737584.0,18000.0,1498161.0,Muzhi,200,64.6667,65.3667,289.8,288.9,289.8,289.8,1005.0,53.0,1.27,263.0,2.67,80.0,,,RU,1627684268.0,1627751049.0,,1005.0,1001.0,
"[{'id': 804, 'main': 'Clouds', 'description': 'overcast clouds', 'icon': '04d'}]",stations,10000.0,1627737584.0,10800.0,543396.0,Koygorodok,200,50.9968,60.445,291.79,292.14,291.79,291.79,998.0,93.0,4.73,193.0,11.08,100.0,,,RU,1627690275.0,1627751604.0,,998.0,983.0,
"[{'id': 800, 'main': 'Clear', 'description': 'clear sky', 'icon': '01d'}]",stations,10000.0,1627737584.0,10800.0,551439.0,Kazanskaya,200,40.4361,45.4106,308.65,306.52,308.65,308.65,1007.0,18.0,1.51,331.0,2.18,6.0,,,RU,1627696867.0,1627750080.0,,1007.0,994.0,
"[{'id': 803, 'main': 'Clouds', 'description': 'broken clouds', 'icon': '04d'}]",stations,10000.0,1627737584.0,-18000.0,3939761.0,Hualmay,200,-77.6139,-11.0964,290.44,290.39,290.44,290.44,1015.0,83.0,3.63,170.0,3.38,65.0,,,PE,1627730876.0,1627772734.0,,1015.0,1010.0,
,,,,,,,404,,,,,,,,,,,,,,,,,,,,,city not found
"[{'id': 800, 'main': 'Clear', 'description': 'clear sky', 'icon': '01d'}]",stations,10000.0,1627737584.0,7200.0,2510281.0,Torremolinos,200,-4.4998,36.6204,307.87,305.89,303.34,308.9,1011.0,20.0,7.2,300.0,,0.0,1.0,6420.0,ES,1627708991.0,1627759525.0,,,,
"[{'id': 801, 'main': 'Clouds', 'description': 'few clouds', 'icon': '02d'}]",stations,10000.0,1627737584.0,10800.0,737611.0,Yenişehir,200,29.6531,40.2644,310.18,309.87,306.08,310.18,1008.0,26.0,5.66,350.0,,20.0,1.0,6982.0,TR,1627700285.0,1627751838.0,,,,
"[{'id': 804, 'main': 'Clouds', 'description': 'overcast clouds', 'icon': '04d'}]",stations,10000.0,1627737389.0,19800.0,1264976.0,Leh,200,77.5833,34.1667,295.33,294.47,295.33,295.33,999.0,33.0,3.06,259.0,3.32,97.0,,,IN,1627689590.0,1627739527.0,,999.0,676.0,
"[{'id': 800, 'main': 'Clear', 'description': 'clear sky', 'icon': '01n'}]",stations,10000.0,1627737585.0,36000.0,2065594.0,Mount Isa,200,139.5,-20.7333,290.02,288.94,290.02,290.02,1015.0,45.0,2.06,310.0,,1.0,1.0,9495.0,AU,1627679600.0,1627719798.0,,,,
"[{'id': 800, 'main': 'Clear', 'description': 'clear sky', 'icon': '01d'}]",stations,10000.0,1627737312.0,-10800.0,3451138.0,Rio Grande,200,-52.0986,-32.035,282.01,279.76,282.01,283.21,1031.0,82.0,3.99,53.0,7.71,0.0,2.0,2020865.0,BR,1627726675.0,1627764688.0,,1031.0,1030.0,
"[{'id': 800, 'main': 'Clear', 'description': 'clear sky', 'icon': '01d'}]",stations,10000.0,1627737585.0,-25200.0,3970558.0,San Ignacio Río Muerto,200,-110.2333,27.4167,298.44,298.77,298.44,298.44,1012.0,67.0,1.88,330.0,2.11,0.0,1.0,7104.0,MX,1627735445.0,1627783821.0,,1012.0,1010.0,
"[{'id': 800, 'main': 'Clear', 'description': 'clear sky', 'icon': '01d'}]",stations,10000.0,1627737585.0,7200.0,3355672.0,Lüderitz,200,15.1594,-26.6481,301.02,299.8,301.02,301.02,1020.0,20.0,3.65,259.0,3.71,0.0,,,NA,1627709985.0,1627749095.0,,1020.0,1017.0,
"[{'id': 500, 'main': 'Rain', 'description': 'light rain', 'icon': '10d'}]",stations,10000.0,1627737542.0,7200.0,2686469.0,Örnsköldsvik,200,18.7153,63.2909,293.68,293.56,292.05,293.68,996.0,68.0,3.6,180.0,,40.0,1.0,1768.0,SE,1627696644.0,1627760729.0,0.45,,,
"[{'id': 802, 'main': 'Clouds', 'description': 'scattered clouds', 'icon': '03n'}]",stations,10000.0,1627737585.0,32400.0,2018069.0,Peleduy,200,112.7406,59.6289,291.59,290.59,291.59,291.59,1015.0,42.0,2.72,80.0,10.01,41.0,,,RU,1627675770.0,1627736472.0,,1015.0,991.0,
"[{'id': 802, 'main': 'Clouds', 'description': 'scattered clouds', 'icon': '03d'}]",stations,10000.0,1627737586.0,0.0,3372760.0,Praia da Vitória,200,-27.0667,38.7333,297.29,297.8,297.29,298.01,1031.0,78.0,3.99,346.0,4.03,40.0,1.0,6895.0,PT,1627714125.0,1627765222.0,,,,
"[{'id': 804, 'main': 'Clouds', 'description': 'overcast clouds', 'icon': '04n'}]",stations,10000.0,1627737586.0,25200.0,1215502.0,Banda Aceh,200,95.3222,5.5577,300.27,302.57,300.27,300.27,1011.0,74.0,7.03,193.0,9.39,100.0,,,ID,1627688048.0,1627732554.0,,1011.0,1010.0,
"[{'id': 801, 'main': 'Clouds', 'description': 'few clouds', 'icon': '02n'}]",stations,10000.0,1627737586.0,28800.0,1798760.0,Pingliang,200,106.6861,35.5392,300.93,299.93,300.93,300.93,999.0,26.0,3.02,201.0,3.9,23.0,,,CN,1627682431.0,1627732717.0,,999.0,859.0,
"[{'id': 804, 'main': 'Clouds', 'description': 'overcast clouds', 'icon': '04n'}]",stations,9570.0,1627737586.0,43200.0,2123814.0,Leningradskiy,200,178.4167,69.3833,273.15,268.73,273.15,273.15,1007.0,94.0,4.2,316.0,5.88,100.0,,,RU,1627739383.0,1627814130.0,,1007.0,1006.0,
,,,,,,,404,,,,,,,,,,,,,,,,,,,,,city not found
"[{'id': 804, 'main': 'Clouds', 'description': 'overcast clouds', 'icon': '04d'}]",stations,10000.0,1627737586.0,-9000.0,6067472.0,Marystown,200,-55.1483,47.1666,290.57,290.82,290.57,290.57,1001.0,94.0,7.54,219.0,12.86,100.0,,,CA,1627719504.0,1627773323.0,,1001.0,999.0,
"[{'id': 801, 'main': 'Clouds', 'description': 'few clouds', 'icon': '02d'}]",stations,10000.0,1627737586.0,3600.0,2396853.0,Omboué,200,9.2618,-1.5746,300.09,301.37,300.09,300.09,1014.0,63.0,4.97,230.0,4.03,15.0,,,GA,1627709270.0,1627752641.0,,1014.0,1013.0,
"[{'id': 804, 'main': 'Clouds', 'description': 'overcast clouds', 'icon': '04d'}]",stations,10000.0,1627737587.0,-18000.0,3932145.0,Pisco,200,-76.2167,-13.7,289.18,288.85,289.18,289.83,1016.0,77.0,2.57,90.0,,90.0,1.0,8691.0,PE,1627730754.0,1627772185.0,,,,
"[{'id': 804, 'main': 'Clouds', 'description': 'overcast clouds', 'icon': '04d'}]",stations,10000.0,1627737587.0,0.0,3414079.0,Olafsvik,200,-23.7142,64.8945,286.4,286.03,286.4,286.4,1014.0,86.0,1.98,180.0,2.32,94.0,,,IS,1627705863.0,1627771876.0,,1014.0,1012.0,
"[{'id': 804, 'main': 'Clouds', 'description': 'overcast clouds', 'icon': '04n'}]",stations,10000.0,1627737587.0,-36000.0,4034551.0,Faanui,200,-151.75,-16.4833,297.92,298.36,297.92,297.92,1014.0,73.0,8.64,137.0,8.19,95.0,,,PF,1627749110.0,1627790084.0,,1014.0,1014.0,
"[{'id': 801, 'main': 'Clouds', 'description': 'few clouds', 'icon': '02d'}]",stations,10000.0,1627737587.0,18000.0,1496476.0,Nyagan,200,65.3936,62.1406,294.06,293.07,294.06,294.06,1006.0,33.0,2.46,245.0,3.56,12.0,,,RU,1627686029.0,1627748939.0,,1006.0,999.0,
"[{'id': 800, 'main': 'Clear', 'description': 'clear sky', 'icon': '01d'}]",stations,10000.0,1627737587.0,18000.0,1171965.0,Lodhran,200,71.6336,29.5405,313.65,318.25,313.65,313.65,994.0,32.0,4.49,102.0,3.6,9.0,,,PK,1627691553.0,1627740419.0,,994.0,981.0,
"[{'id': 804, 'main': 'Clouds', 'description': 'overcast clouds', 'icon': '04d'}]",stations,10000.0,1627737587.0,3600.0,2643044.0,Margate,200,1.3862,51.3813,294.07,293.86,292.98,295.47,1009.0,63.0,4.74,263.0,6.36,94.0,2.0,2040265.0,GB,1627705035.0,1627760655.0,,1009.0,1006.0,
"[{'id': 803, 'main': 'Clouds', 'description': 'broken clouds', 'icon': '04n'}]",stations,10000.0,1627737588.0,36000.0,2021644.0,Kraskino,200,130.7794,42.7114,297.46,298.45,297.46,297.46,1003.0,96.0,4.89,107.0,10.0,52.0,,,RU,1627675623.0,1627727960.0,,1003.0,1001.0,
"[{'id': 803, 'main': 'Clouds', 'description': 'broken clouds', 'icon': '04d'}]",stations,10000.0,1627737588.0,3600.0,2514651.0,Los Llanos de Aridane,200,-17.9182,28.6585,295.44,295.89,295.44,296.01,1018.0,83.0,8.75,20.0,,75.0,2.0,2002582.0,ES,1627713150.0,1627761807.0,,,,
"[{'id': 800, 'main': 'Clear', 'description': 'clear sky', 'icon': '01d'}]",stations,10000.0,1627737588.0,10800.0,259289.0,Corinth,200,22.9573,37.9407,310.27,313.08,308.09,315.17,1004.0,36.0,1.98,102.0,3.0,0.0,2.0,2039794.0,GR,1627702221.0,1627753116.0,,,,
"[{'id': 804, 'main': 'Clouds', 'description': 'overcast clouds', 'icon': '04d'}]",stations,10000.0,1627737588.0,7200.0,605155.0,Kiruna,200,20.2251,67.8557,288.66,287.91,288.66,288.66,994.0,63.0,5.66,200.0,,90.0,1.0,1771.0,SE,1627692760.0,1627763889.0,,,,
"[{'id': 804, 'main': 'Clouds', 'description': 'overcast clouds', 'icon': '04d'}]",stations,10000.0,1627737588.0,7200.0,3084074.0,Gmina Świecie,200,18.4474,53.4095,296.57,296.06,296.26,300.32,1004.0,42.0,5.35,230.0,9.43,88.0,2.0,2005111.0,PL,1627700435.0,1627757066.0,,1004.0,1000.0,
"[{'id': 804, 'main': 'Clouds', 'description': 'overcast clouds', 'icon': '04n'}]",stations,10000.0,1627737588.0,28800.0,2074865.0,Carnarvon,200,113.6333,-24.8667,288.19,287.24,288.19,288.19,1021.0,57.0,2.57,140.0,,90.0,1.0,9505.0,AU,1627686188.0,1627725625.0,,,,
"[{'id': 804, 'main': 'Clouds', 'description': 'overcast clouds', 'icon': '04d'}]",stations,10000.0,1627737588.0,-21600.0,3985710.0,Cabo San Lucas,200,-109.9124,22.8909,301.4,305.07,297.12,302.32,982.0,75.0,3.45,320.0,3.58,93.0,2.0,2004005.0,MX,1627735818.0,1627783295.0,,,,
"[{'id': 800, 'main': 'Clear', 'description': 'clear sky', 'icon': '01d'}]",stations,10000.0,1627737589.0,3600.0,2264557.0,Ponta do Sol,200,-17.1,32.6667,299.67,299.67,298.5,300.77,1023.0,67.0,1.96,22.0,3.36,0.0,2.0,2008291.0,PT,1627712505.0,1627762059.0,,1023.0,1023.0,
"[{'id': 800, 'main': 'Clear', 'description': 'clear sky', 'icon': '01d'}]",stations,10000.0,1627737589.0,0.0,2381334.0,Atar,200,-13.0499,20.5169,316.06,314.05,316.06,316.06,1009.0,13.0,8.1,177.0,6.89,5.0,,,MR,1627712787.0,1627759833.0,,1009.0,985.0,
"[{'id': 801, 'main': 'Clouds', 'description': 'few clouds', 'icon': '02d'}]",stations,10000.0,1627737589.0,-14400.0,3385670.0,Urucará,200,-57.76,-2.5364,302.65,303.21,302.65,302.65,1017.0,48.0,1.27,216.0,1.76,19.0,,,BR,1627725430.0,1627768650.0,,1017.0,1015.0,
"[{'id': 804, 'main': 'Clouds', 'description': 'overcast clouds', 'icon': '04d'}]",stations,10000.0,1627737589.0,18000.0,1486321.0,Yar-Sale,200,70.8333,66.8333,286.89,286.1,286.89,286.89,1004.0,68.0,5.07,279.0,6.39,88.0,,,RU,1627681595.0,1627750762.0,,1004.0,1004.0,
"[{'id': 800, 'main': 'Clear', 'description': 'clear sky', 'icon': '01d'}]",stations,10000.0,1627737398.0,10800.0,108410.0,Riyadh,200,46.7219,24.6877,317.23,313.59,317.23,317.23,998.0,8.0,2.84,120.0,4.22,1.0,1.0,7424.0,SA,1627698039.0,1627745891.0,,998.0,934.0,
"[{'id': 800, 'main': 'Clear', 'description': 'clear sky', 'icon': '01n'}]",stations,10000.0,1627737589.0,28800.0,6620339.0,Karratha,200,116.8463,-20.7377,294.52,293.78,294.52,294.52,1016.0,41.0,4.9,196.0,8.74,1.0,,,AU,1627685036.0,1627725236.0,,1016.0,1014.0,
"[{'id': 804, 'main': 'Clouds', 'description': 'overcast clouds', 'icon': '04d'}]",stations,10000.0,1627737590.0,18000.0,1502073.0,Krasnosel'kup,200,82.4667,65.7,288.17,287.48,288.17,288.17,1008.0,67.0,3.79,210.0,6.64,100.0,,,RU,1627679737.0,1627747036.0,,1008.0,1007.0,
"[{'id': 802, 'main': 'Clouds', 'description': 'scattered clouds', 'icon': '03d'}]",stations,10000.0,1627737311.0,28800.0,1529626.0,Baijiantan,200,85.1833,45.6333,304.13,302.12,304.13,304.13,1009.0,17.0,2.44,98.0,3.05,31.0,,,CN,1627686079.0,1627739390.0,,1009.0,979.0,
,,,,,,,404,,,,,,,,,,,,,,,,,,,,,city not found
"[{'id': 800, 'main': 'Clear', 'description': 'clear sky', 'icon': '01d'}]",stations,10000.0,1627737590.0,3600.0,2236967.0,Soyo,200,12.3689,-6.1349,298.27,298.64,298.27,298.27,1013.0,69.0,4.48,250.0,4.37,1.0,,,AO,1627708885.0,1627751534.0,,1013.0,1012.0,
"[{'id': 800, 'main': 'Clear', 'description': 'clear sky', 'icon': '01d'}]",stations,10000.0,1627737590.0,25200.0,1488903.0,Turukhansk,200,87.9833,65.8167,289.63,288.69,289.63,289.63,1010.0,52.0,5.93,226.0,9.17,1.0,,,RU,1627678320.0,1627745805.0,,1010.0,1005.0,
"[{'id': 803, 'main': 'Clouds', 'description': 'broken clouds', 'icon': '04d'}]",stations,10000.0,1627737590.0,0.0,3416888.0,Grindavik,200,-22.4338,63.8424,286.1,285.75,285.12,287.35,1014.0,88.0,5.66,210.0,,75.0,1.0,90.0,IS,1627706222.0,1627770902.0,,,,
"[{'id': 800, 'main': 'Clear', 'description': 'clear sky', 'icon': '01n'}]",stations,10000.0,1627737590.0,32400.0,2018735.0,Nyurba,200,118.3319,63.2842,291.1,290.31,291.1,291.1,1018.0,52.0,1.06,129.0,1.12,7.0,,,RU,1627672690.0,1627736868.0,,1018.0,1005.0,
"[{'id': 804, 'main': 'Clouds', 'description': 'overcast clouds', 'icon': '04n'}]",stations,10000.0,1627737591.0,-7200.0,3418910.0,Upernavik,200,-56.1549,72.7868,278.58,274.96,278.58,278.58,1011.0,79.0,5.13,3.0,5.35,100.0,,,GL,0.0,0.0,,1011.0,1011.0,
"[{'id': 801, 'main': 'Clouds', 'description': 'few clouds', 'icon': '02n'}]",stations,10000.0,1627737591.0,39600.0,2139521.0,Noumea,200,166.4572,-22.2763,294.26,295.01,289.14,294.26,1016.0,99.0,6.44,198.0,8.04,15.0,2.0,2018998.0,NC,1627759643.0,1627799611.0,,,,
"[{'id': 804, 'main': 'Clouds', 'description': 'overcast clouds', 'icon': '04d'}]",stations,10000.0,1627737591.0,10800.0,866062.0,Iskateley,200,53.1512,67.6803,290.74,289.86,290.74,290.74,1000.0,50.0,4.32,117.0,5.48,100.0,,,RU,1627685020.0,1627755824.0,,1000.0,999.0,
"[{'id': 800, 'main': 'Clear', 'description': 'clear sky', 'icon': '01d'}]",stations,10000.0,1627737591.0,10800.0,1090225.0,Koungou,200,45.2042,-12.7336,299.99,301.1,299.99,299.99,1018.0,61.0,6.69,150.0,,0.0,1.0,2131.0,YT,1627701539.0,1627743119.0,,,,
"[{'id': 800, 'main': 'Clear', 'description': 'clear sky', 'icon': '01d'}]",stations,10000.0,1627737591.0,3600.0,2447513.0,Arlit,200,7.3853,18.7369,311.7,311.31,311.7,311.7,1009.0,23.0,2.6,229.0,2.16,9.0,,,NE,1627708044.0,1627754767.0,,1009.0,964.0,
"[{'id': 803, 'main': 'Clouds', 'description': 'broken clouds', 'icon': '04d'}]",stations,10000.0,1627737591.0,-3600.0,3374235.0,Sal Rei,200,-22.9167,16.1833,301.26,302.88,298.46,301.26,1016.0,61.0,4.63,20.0,,75.0,1.0,2459.0,CV,1627715544.0,1627761811.0,,,,
"[{'id': 800, 'main': 'Clear', 'description': 'clear sky', 'icon': '01d'}]",stations,10000.0,1627737591.0,-7200.0,3420768.0,Qasigiannguit,200,-51.1922,68.8193,287.29,286.14,287.29,287.29,1010.0,53.0,1.26,186.0,2.08,5.0,1.0,165.0,GL,1627708783.0,1627782145.0,,1010.0,1009.0,
"[{'id': 804, 'main': 'Clouds', 'description': 'overcast clouds', 'icon': '04n'}]",stations,10000.0,1627737592.0,34200.0,2156643.0,Mount Gambier,200,140.7667,-37.8333,280.43,278.66,280.43,280.43,1006.0,86.0,2.62,277.0,6.68,100.0,,,AU,1627681095.0,1627717695.0,,1006.0,997.0,
"[{'id': 800, 'main': 'Clear', 'description': 'clear sky', 'icon': '01n'}]",stations,10000.0,1627737592.0,28800.0,1803331.0,Linxia Chengguanzhen,200,103.2064,35.6003,295.36,294.55,295.36,295.36,1002.0,35.0,3.19,176.0,3.39,0.0,,,CN,1627683259.0,1627733560.0,,1002.0,809.0,
"[{'id': 802, 'main': 'Clouds', 'description': 'scattered clouds', 'icon': '03d'}]",stations,10000.0,1627737592.0,0.0,3372964.0,Lagoa,200,-27.9833,39.05,294.49,294.74,294.49,294.49,1031.0,79.0,3.23,316.0,3.48,27.0,,,PT,1627714301.0,1627765487.0,,1031.0,1022.0,
"[{'id': 803, 'main': 'Clouds', 'description': 'broken clouds', 'icon': '04d'}]",stations,10000.0,1627737592.0,18000.0,1337607.0,Kudahuvadhoo,200,72.8944,2.6708,301.7,304.92,301.7,301.7,1012.0,70.0,2.18,270.0,2.41,80.0,,,MV,1627693662.0,1627737706.0,,1012.0,1011.0,
"[{'id': 502, 'main': 'Rain', 'description': 'heavy intensity rain', 'icon': '10n'}]",stations,10000.0,1627737592.0,28800.0,1805857.0,Jieshi,200,115.8257,22.8134,301.45,306.54,301.45,301.45,1000.0,83.0,6.82,230.0,9.95,96.0,2.0,2000938.0,CN,1627681632.0,1627729129.0,4.21,1000.0,999.0,
"[{'id': 802, 'main': 'Clouds', 'description': 'scattered clouds', 'icon': '03n'}]",stations,10000.0,1627737592.0,32400.0,1623197.0,Tual,200,132.75,-5.6667,300.67,304.08,300.67,300.67,1012.0,80.0,7.04,137.0,7.39,43.0,,,ID,1627679959.0,1627722678.0,,1012.0,1012.0,
"[{'id': 803, 'main': 'Clouds', 'description': 'broken clouds', 'icon': '04d'}]",stations,10000.0,1627737593.0,-18000.0,3533462.0,Acapulco de Juárez,200,-99.8901,16.8634,300.05,303.5,300.05,300.05,1012.0,89.0,2.57,340.0,,75.0,1.0,7103.0,MX,1627733962.0,1627780340.0,,,,
"[{'id': 802, 'main': 'Clouds', 'description': 'scattered clouds', 'icon': '03d'}]",stations,10000.0,1627737593.0,10800.0,154666.0,Masoko,200,33.75,-9.3333,296.84,296.54,296.84,296.84,1020.0,49.0,3.62,145.0,4.35,31.0,,,TZ,1627704010.0,1627746146.0,,1020.0,921.0,
"[{'id': 803, 'main': 'Clouds', 'description': 'broken clouds', 'icon': '04n'}]",stations,10000.0,1627737593.0,32400.0,2017215.0,Sangar,200,127.4739,63.9242,289.0,288.34,289.0,289.0,1015.0,65.0,0.94,250.0,1.1,51.0,,,RU,1627670116.0,1627735054.0,,1015.0,1006.0,
,,,,,,,404,,,,,,,,,,,,,,,,,,,,,city not found
"[{'id': 804, 'main': 'Clouds', 'description': 'overcast clouds', 'icon': '04d'}]",stations,10000.0,1627737593.0,10800.0,477958.0,Ust'-Shonosha,200,41.343,61.1531,287.94,287.9,287.94,287.94,998.0,93.0,2.2,234.0,8.08,100.0,,,RU,1627692283.0,1627754229.0,,998.0,986.0,
"[{'id': 804, 'main': 'Clouds', 'description': 'overcast clouds', 'icon': '04n'}]",stations,1356.0,1627737593.0,43200.0,2180815.0,Tuatapere,200,167.6833,-46.1333,281.38,281.38,281.38,281.38,1011.0,98.0,0.16,339.0,0.87,100.0,2.0,2008959.0,NZ,1627762178.0,1627796487.0,,1011.0,1008.0,
,,,,,,,404,,,,,,,,,,,,,,,,,,,,,city not found
,,,,,,,404,,,,,,,,,,,,,,,,,,,,,city not found
"[{'id': 800, 'main': 'Clear', 'description': 'clear sky', 'icon': '01d'}]",stations,10000.0,1627737530.0,-25200.0,5364271.0,Laguna,200,-121.4238,38.421,290.86,290.64,285.61,299.06,1013.0,75.0,1.79,213.0,5.36,1.0,2.0,2034215.0,US,1627736828.0,1627787810.0,,,,
"[{'id': 801, 'main': 'Clouds', 'description': 'few clouds', 'icon': '02d'}]",stations,10000.0,1627737594.0,-14400.0,3573374.0,The Valley,200,-63.0578,18.217,302.39,308.34,302.23,303.07,1020.0,79.0,7.72,90.0,,20.0,1.0,8788.0,AI,1627725001.0,1627771622.0,,,,
"[{'id': 803, 'main': 'Clouds', 'description': 'broken clouds', 'icon': '04d'}]",stations,10000.0,1627737594.0,7200.0,3220841.0,Trostberg,200,12.5582,48.0279,296.71,296.58,294.79,297.05,1009.0,56.0,2.64,287.0,3.53,83.0,2.0,2012365.0,DE,1627703072.0,1627757256.0,,,,
"[{'id': 804, 'main': 'Clouds', 'description': 'overcast clouds', 'icon': '04d'}]",stations,10000.0,1627737594.0,10800.0,692410.0,Strogonovka,200,34.1973,44.9431,302.65,302.38,302.65,302.65,1010.0,41.0,0.51,4.0,3.48,93.0,,,UA,1627698448.0,1627751494.0,,1010.0,975.0,
"[{'id': 803, 'main': 'Clouds', 'description': 'broken clouds', 'icon': '04d'}]",stations,8570.0,1627737594.0,20700.0,1283285.0,Jumla,200,82.1838,29.2747,292.56,293.01,292.56,292.56,1006.0,94.0,1.5,223.0,1.69,75.0,,,NP,1627689049.0,1627737860.0,,1006.0,770.0,
"[{'id': 800, 'main': 'Clear', 'description': 'clear sky', 'icon': '01d'}]",stations,10000.0,1627737595.0,-14400.0,4589446.0,North Myrtle Beach,200,-78.68,33.816,302.81,309.81,301.05,304.45,1013.0,86.0,2.06,290.0,,1.0,2.0,2006520.0,US,1627727155.0,1627776966.0,,,,
"[{'id': 802, 'main': 'Clouds', 'description': 'scattered clouds', 'icon': '03d'}]",stations,10000.0,1627737595.0,0.0,2455290.0,Kidal,200,1.4078,18.4411,312.76,312.27,312.76,312.76,1008.0,21.0,3.42,268.0,3.48,47.0,,,ML,1627709505.0,1627756175.0,,1008.0,959.0,
"[{'id': 802, 'main': 'Clouds', 'description': 'scattered clouds', 'icon': '03n'}]",stations,10000.0,1627737365.0,43200.0,2206854.0,Gisborne,200,178.0042,-38.6533,280.9,280.9,280.9,280.9,1013.0,86.0,0.83,267.0,1.2,50.0,2.0,2011018.0,NZ,1627758613.0,1627795098.0,,1013.0,1012.0,
"[{'id': 800, 'main': 'Clear', 'description': 'clear sky', 'icon': '01d'}]",stations,10000.0,1627737595.0,7200.0,3354077.0,Opuwo,200,13.84,-18.0607,299.61,299.61,299.61,299.61,1017.0,15.0,7.56,63.0,8.17,0.0,,,NA,1627709514.0,1627750199.0,,1017.0,894.0,
"[{'id': 804, 'main': 'Clouds', 'description': 'overcast clouds', 'icon': '04n'}]",stations,10000.0,1627737595.0,-28800.0,5866063.0,Kenai,200,-151.2583,60.5544,284.42,283.98,284.18,284.87,1021.0,91.0,0.0,0.0,,90.0,1.0,7680.0,US,1627738851.0,1627800107.0,,,,
"[{'id': 803, 'main': 'Clouds', 'description': 'broken clouds', 'icon': '04d'}]",stations,10000.0,1627737595.0,0.0,2297810.0,Mumford,200,-0.759,5.2618,299.34,299.34,299.34,299.34,1015.0,75.0,5.59,204.0,6.14,73.0,,,GH,1627711133.0,1627755588.0,,1015.0,1012.0,
"[{'id': 803, 'main': 'Clouds', 'description': 'broken clouds', 'icon': '04d'}]",stations,10000.0,1627737595.0,0.0,2295672.0,Saltpond,200,-1.0606,5.2091,300.25,302.26,300.25,300.25,1015.0,71.0,5.68,194.0,5.8,83.0,,,GH,1627711209.0,1627755656.0,,1015.0,1013.0,
"[{'id': 802, 'main': 'Clouds', 'description': 'scattered clouds', 'icon': '03d'}]",stations,10000.0,1627737596.0,14400.0,933995.0,Souillac,200,57.5167,-20.5167,296.36,296.41,296.13,296.36,1025.0,64.0,4.63,120.0,,40.0,1.0,2061.0,MU,1627699251.0,1627739498.0,,,,
"[{'id': 800, 'main': 'Clear', 'description': 'clear sky', 'icon': '01d'}]",stations,10000.0,1627737596.0,-10800.0,3388456.0,São José da Coroa Grande,200,-35.1478,-8.8978,299.21,299.21,299.21,299.21,1020.0,77.0,7.21,146.0,9.42,2.0,,,BR,1627720508.0,1627762718.0,,1020.0,1019.0,
"[{'id': 801, 'main': 'Clouds', 'description': 'few clouds', 'icon': '02d'}]",stations,10000.0,1627737596.0,-14400.0,3577955.0,Biabou,200,-61.1333,13.2,302.2,307.81,302.2,302.2,1017.0,79.0,7.44,84.0,9.94,18.0,1.0,8798.0,VC,1627724974.0,1627770726.0,,1017.0,1017.0,
"[{'id': 800, 'main': 'Clear', 'description': 'clear sky', 'icon': '01d'}]",stations,10000.0,1627737596.0,-14400.0,5117949.0,Freeport,200,-73.5832,40.6576,292.74,292.35,290.25,294.58,1016.0,61.0,0.89,298.0,3.58,1.0,2.0,2020193.0,US,1627725020.0,1627776655.0,,,,
"[{'id': 500, 'main': 'Rain', 'description': 'light rain', 'icon': '10n'}]",stations,10000.0,1627737596.0,28800.0,1805753.0,Jinan,200,116.9972,36.6683,303.72,309.89,303.72,303.72,996.0,71.0,6.05,196.0,12.96,0.0,,,CN,1627679809.0,1627730390.0,0.15,996.0,992.0,
"[{'id': 800, 'main': 'Clear', 'description': 'clear sky', 'icon': '01d'}]",stations,10000.0,1627737596.0,-21600.0,3591618.0,Pasaco,200,-90.2064,13.9772,299.71,299.71,297.36,299.71,1013.0,78.0,2.72,44.0,3.88,5.0,1.0,7209.0,GT,1627731887.0,1627777767.0,,1013.0,998.0,
"[{'id': 803, 'main': 'Clouds', 'description': 'broken clouds', 'icon': '04n'}]",stations,10000.0,1627737597.0,28800.0,1635882.0,Mataram,200,116.1167,-8.5833,298.6,299.32,298.6,298.6,1014.0,81.0,4.76,136.0,8.12,67.0,1.0,9337.0,ID,1627684185.0,1627726437.0,,1014.0,1011.0,
"[{'id': 803, 'main': 'Clouds', 'description': 'broken clouds', 'icon': '04n'}]",stations,10000.0,1627737597.0,32400.0,2013375.0,Vitim,200,112.5578,59.4511,291.92,290.95,291.92,291.92,1014.0,42.0,2.84,80.0,9.4,78.0,,,RU,1627675885.0,1627736445.0,,1014.0,991.0,
"[{'id': 804, 'main': 'Clouds', 'description': 'overcast clouds', 'icon': '04d'}]",stations,10000.0,1627737354.0,7200.0,212730.0,Kisangani,200,25.2,0.5167,309.18,309.11,309.18,309.18,1007.0,29.0,0.73,247.0,2.26,100.0,,,CD,1627705280.0,1627748981.0,,1007.0,964.0,
"[{'id': 804, 'main': 'Clouds', 'description': 'overcast clouds', 'icon': '04d'}]",stations,10000.0,1627737597.0,-18000.0,3936456.0,Lima,200,-77.0282,-12.0432,288.52,288.38,287.67,288.65,1000.0,87.0,1.03,0.0,,90.0,2.0,2037860.0,PE,1627730813.0,1627772516.0,,,,
"[{'id': 804, 'main': 'Clouds', 'description': 'overcast clouds', 'icon': '04n'}]",stations,10000.0,1627737597.0,32400.0,1842966.0,Gijang,200,129.2139,35.2442,302.0,308.78,302.0,302.0,1000.0,86.0,2.35,244.0,2.63,100.0,1.0,8086.0,KR,1627677059.0,1627727276.0,,1000.0,997.0,
"[{'id': 800, 'main': 'Clear', 'description': 'clear sky', 'icon': '01d'}]",stations,10000.0,1627737597.0,7200.0,89113.0,Ajdabiya,200,20.2263,30.7554,308.54,308.62,308.54,308.54,1010.0,31.0,11.06,319.0,12.33,0.0,,,LY,1627703762.0,1627752886.0,,1010.0,1010.0,
"[{'id': 800, 'main': 'Clear', 'description': 'clear sky', 'icon': '01d'}]",stations,10000.0,1627737598.0,-7200.0,3423146.0,Ilulissat,200,-51.1,69.2167,287.16,285.69,287.16,287.16,1010.0,41.0,2.57,300.0,,1.0,1.0,165.0,GL,1627708178.0,1627782705.0,,,,
"[{'id': 800, 'main': 'Clear', 'description': 'clear sky', 'icon': '01n'}]",stations,10000.0,1627737598.0,25200.0,1625908.0,Sungai Raya,200,108.9,0.7,300.38,303.52,300.38,300.38,1010.0,81.0,3.3,206.0,4.23,3.0,,,ID,1627685177.0,1627728908.0,,1010.0,1010.0,
"[{'id': 801, 'main': 'Clouds', 'description': 'few clouds', 'icon': '02d'}]",stations,10000.0,1627737598.0,-21600.0,3610813.0,El Pino,200,-86.9333,15.7,299.08,299.9,298.97,299.44,1014.0,83.0,1.54,170.0,,20.0,1.0,7093.0,HN,1627730953.0,1627777130.0,,,,
,,,,,,,404,,,,,,,,,,,,,,,,,,,,,city not found
"[{'id': 802, 'main': 'Clouds', 'description': 'scattered clouds', 'icon': '03d'}]",stations,10000.0,1627737598.0,-21600.0,5983607.0,Inuvik,200,-133.7218,68.3499,287.64,287.08,286.57,288.63,1013.0,74.0,1.03,130.0,,40.0,1.0,1029.0,CA,1627729275.0,1627801266.0,,,,
"[{'id': 801, 'main': 'Clouds', 'description': 'few clouds', 'icon': '02d'}]",stations,10000.0,1627737598.0,18000.0,1220798.0,Panjakent,200,67.6093,39.4952,303.04,301.37,303.04,303.04,1005.0,22.0,3.45,334.0,3.0,11.0,1.0,9013.0,TJ,1627691281.0,1627742623.0,,1005.0,900.0,
"[{'id': 803, 'main': 'Clouds', 'description': 'broken clouds', 'icon': '04d'}]",stations,10000.0,1627737599.0,3600.0,2477537.0,Tazmalt,200,4.3989,36.3868,315.88,313.19,315.88,315.88,1009.0,11.0,4.8,232.0,10.09,73.0,,,DZ,1627706884.0,1627757360.0,,1009.0,976.0,
"[{'id': 800, 'main': 'Clear', 'description': 'clear sky', 'icon': '01d'}]",stations,10000.0,1627737599.0,10800.0,527429.0,Meshcherino,200,38.36,55.1957,299.68,299.68,297.33,300.11,1006.0,39.0,7.19,271.0,10.45,4.0,1.0,9021.0,RU,1627695158.0,1627752786.0,,1006.0,991.0,
"[{'id': 804, 'main': 'Clouds', 'description': 'overcast clouds', 'icon': '04n'}]",stations,10000.0,1627737599.0,32400.0,1879613.0,Anju,200,125.6647,39.6178,297.19,298.05,297.19,297.19,1000.0,92.0,2.35,143.0,3.64,100.0,,,KP,1627677322.0,1627728717.0,,1000.0,996.0,
"[{'id': 802, 'main': 'Clouds', 'description': 'scattered clouds', 'icon': '03d'}]",stations,10000.0,1627737599.0,7200.0,988698.0,Knysna,200,23.0471,-34.0363,293.36,292.32,293.36,293.36,1023.0,34.0,1.38,189.0,1.5,31.0,1.0,1918.0,ZA,1627708873.0,1627746421.0,,1023.0,1022.0,
"[{'id': 801, 'main': 'Clouds', 'description': 'few clouds', 'icon': '02d'}]",stations,10000.0,1627737599.0,-18000.0,6165406.0,Thompson,200,-97.8558,55.7435,286.24,285.46,286.24,286.24,1022.0,71.0,2.06,320.0,,20.0,1.0,935.0,CA,1627727729.0,1627785596.0,,,,
"[{'id': 500, 'main': 'Rain', 'description': 'light rain', 'icon': '10d'}]",stations,10000.0,1627737599.0,7200.0,485660.0,Tsimmerbude,200,20.1347,54.675,297.18,296.94,297.18,297.18,1003.0,50.0,5.46,197.0,8.94,27.0,1.0,8934.0,RU,1627699687.0,1627757005.0,0.32,1003.0,1003.0,
"[{'id': 802, 'main': 'Clouds', 'description': 'scattered clouds', 'icon': '03d'}]",stations,10000.0,1627737599.0,7200.0,1028434.0,Quelimane,200,36.8883,-17.8786,298.12,298.27,298.12,298.12,1026.0,61.0,4.63,150.0,,40.0,1.0,2208.0,MZ,1627703968.0,1627744682.0,,,,
"[{'id': 500, 'main': 'Rain', 'description': 'light rain', 'icon': '10n'}]",stations,10000.0,1627737600.0,28800.0,1701054.0,Marawi,200,124.2928,7.9986,296.29,297.11,296.29,296.29,1013.0,94.0,0.7,101.0,0.77,98.0,2.0,2007154.0,PH,1627680897.0,1627725800.0,0.24,1013.0,933.0,
"[{'id': 802, 'main': 'Clouds', 'description': 'scattered clouds', 'icon': '03d'}]",stations,10000.0,1627737600.0,7200.0,3115824.0,Muros,200,-9.0603,42.7762,294.43,293.84,293.07,294.95,1020.0,47.0,7.06,300.0,7.55,29.0,2.0,2000018.0,ES,1627709199.0,1627761506.0,,1020.0,1018.0,
"[{'id': 804, 'main': 'Clouds', 'description': 'overcast clouds', 'icon': '04d'}]",stations,10000.0,1627737352.0,3600.0,218680.0,Boende,200,20.8667,-0.2167,307.97,307.99,307.97,307.97,1009.0,32.0,1.22,317.0,2.39,100.0,,,CD,1627706377.0,1627749963.0,,1009.0,971.0,
"[{'id': 803, 'main': 'Clouds', 'description': 'broken clouds', 'icon': '04d'}]",stations,10000.0,1627737600.0,10800.0,708753.0,Hlobyne,200,33.2596,49.3878,303.66,302.86,303.66,303.66,1010.0,35.0,4.28,244.0,3.75,55.0,,,UA,1627697821.0,1627752571.0,,1010.0,999.0,
,,,,,,,404,,,,,,,,,,,,,,,,,,,,,city not found
"[{'id': 800, 'main': 'Clear', 'description': 'clear sky', 'icon': '01n'}]",stations,10000.0,1627737600.0,28800.0,2063042.0,Port Hedland,200,118.5667,-20.3167,292.18,292.15,292.18,292.18,1015.0,77.0,3.6,250.0,,5.0,1.0,9585.0,AU,1627684585.0,1627724860.0,,,,
"[{'id': 800, 'main': 'Clear', 'description': 'clear sky', 'icon': '01d'}]",stations,10000.0,1627737601.0,0.0,2450173.0,Taoudenni,200,-3.9836,22.6783,317.96,315.49,317.96,317.96,1007.0,11.0,4.07,285.0,3.54,4.0,,,ML,1627710408.0,1627757860.0,,1007.0,992.0,
,,,,,,,404,,,,,,,,,,,,,,,,,,,,,city not found
"[{'id': 800, 'main': 'Clear', 'description': 'clear sky', 'icon': '01d'}]",stations,10000.0,1627737601.0,14400.0,934479.0,Grand Gaube,200,57.6608,-20.0064,296.14,296.19,296.14,296.37,1025.0,65.0,4.02,125.0,7.15,7.0,2.0,2002134.0,MU,1627699171.0,1627739509.0,,,,
"[{'id': 801, 'main': 'Clouds', 'description': 'few clouds', 'icon': '02d'}]",stations,10000.0,1627737601.0,14400.0,616231.0,Shenavan,200,43.9288,40.0549,305.47,304.46,304.88,305.47,1008.0,31.0,3.6,120.0,,20.0,1.0,7007.0,AM,1627696887.0,1627748383.0,,,,
"[{'id': 802, 'main': 'Clouds', 'description': 'scattered clouds', 'icon': '03n'}]",stations,10000.0,1627737601.0,43200.0,2206874.0,Waipawa,200,175.5153,-41.4122,279.36,278.11,277.56,279.5,1014.0,94.0,1.82,22.0,2.72,40.0,2.0,2033918.0,NZ,1627759580.0,1627795326.0,,1014.0,983.0,
"[{'id': 800, 'main': 'Clear', 'description': 'clear sky', 'icon': '01n'}]",stations,10000.0,1627737602.0,32400.0,2021041.0,Kyra,200,111.9753,49.5776,286.83,286.0,286.83,286.83,1010.0,67.0,1.48,321.0,1.52,1.0,,,RU,1627678871.0,1627733739.0,,1010.0,908.0,
,,,,,,,404,,,,,,,,,,,,,,,,,,,,,city not found
"[{'id': 802, 'main': 'Clouds', 'description': 'scattered clouds', 'icon': '03n'}]",stations,10000.0,1627737602.0,19800.0,1267648.0,Karur,200,78.0833,10.95,304.63,305.96,304.63,304.63,1008.0,47.0,9.14,257.0,11.07,47.0,,,IN,1627691745.0,1627737132.0,,1008.0,994.0,
"[{'id': 804, 'main': 'Clouds', 'description': 'overcast clouds', 'icon': '04d'}]",stations,10000.0,1627737602.0,-10800.0,3460942.0,Itacarambi,200,-44.0919,-15.1022,296.62,296.41,296.62,296.62,1024.0,53.0,4.01,107.0,5.48,95.0,,,BR,1627723162.0,1627764357.0,,1024.0,973.0,
"[{'id': 500, 'main': 'Rain', 'description': 'light rain', 'icon': '10n'}]",stations,10000.0,1627737602.0,39600.0,2126199.0,Cherskiy,200,161.3,68.75,279.08,274.53,279.08,279.08,1001.0,85.0,8.01,149.0,12.7,100.0,,,RU,1627744428.0,1627817301.0,0.13,1001.0,1001.0,
"[{'id': 500, 'main': 'Rain', 'description': 'light rain', 'icon': '10n'}]",stations,10000.0,1627737602.0,36000.0,2094342.0,Kavieng,200,150.7967,-2.5744,300.55,303.57,300.55,300.55,1011.0,78.0,3.51,114.0,3.86,7.0,,,PG,1627675382.0,1627718593.0,0.77,1011.0,1010.0,
"[{'id': 802, 'main': 'Clouds', 'description': 'scattered clouds', 'icon': '03d'}]",stations,10000.0,1627737603.0,-14400.0,3576994.0,Cockburn Town,200,-71.1419,21.4612,302.13,305.83,302.13,302.13,1019.0,70.0,6.17,100.0,,40.0,1.0,7041.0,TC,1627726645.0,1627773858.0,,,,
"[{'id': 803, 'main': 'Clouds', 'description': 'broken clouds', 'icon': '04d'}]",stations,10000.0,1627737603.0,14400.0,286987.0,Nizwá,200,57.5333,22.9333,312.02,312.72,312.02,312.02,1001.0,26.0,1.75,256.0,2.17,55.0,,,OM,1627695615.0,1627743126.0,,1001.0,947.0,
"[{'id': 800, 'main': 'Clear', 'description': 'clear sky', 'icon': '01d'}]",stations,10000.0,1627737603.0,-7200.0,3421982.0,Maniitsoq,200,-52.9,65.4167,280.48,276.62,280.48,280.48,1014.0,84.0,7.13,153.0,10.23,9.0,,,GL,1627712519.0,1627779228.0,,1014.0,1010.0,
"[{'id': 800, 'main': 'Clear', 'description': 'clear sky', 'icon': '01d'}]",stations,10000.0,1627737330.0,10800.0,737021.0,Zonguldak,200,31.8333,41.25,299.62,299.62,299.62,299.62,1010.0,27.0,3.97,8.0,4.35,0.0,1.0,6965.0,TR,1627699615.0,1627751462.0,,1010.0,949.0,
"[{'id': 804, 'main': 'Clouds', 'description': 'overcast clouds', 'icon': '04d'}]",stations,10000.0,1627737603.0,14400.0,517172.0,Novyye Burasy,200,46.0714,52.1324,301.56,301.6,301.56,301.56,1008.0,45.0,4.79,263.0,7.52,100.0,,,RU,1627694120.0,1627750122.0,,1008.0,983.0,
"[{'id': 801, 'main': 'Clouds', 'description': 'few clouds', 'icon': '02d'}]",stations,10000.0,1627737604.0,-10800.0,6111867.0,Port Hawkesbury,200,-61.3485,45.6169,292.0,291.82,289.09,292.66,1002.0,72.0,3.58,256.0,8.49,20.0,2.0,2004957.0,CA,1627721278.0,1627774524.0,,,,
,,,,,,,404,,,,,,,,,,,,,,,,,,,,,city not found
"[{'id': 800, 'main': 'Clear', 'description': 'clear sky', 'icon': '01d'}]",stations,10000.0,1627737604.0,0.0,2629833.0,Husavik,200,-17.3389,66.0449,289.1,288.13,289.1,289.1,1014.0,53.0,2.69,30.0,1.94,1.0,1.0,83.0,IS,1627703486.0,1627771192.0,,1014.0,1013.0,
"[{'id': 721, 'main': 'Haze', 'description': 'haze', 'icon': '50d'}]",stations,5000.0,1627737604.0,-14400.0,3893629.0,Coquimbo,200,-71.3436,-29.9533,280.0,278.19,280.0,280.0,1019.0,100.0,2.57,80.0,,90.0,1.0,8514.0,CL,1627731070.0,1627769530.0,,,,
"[{'id': 800, 'main': 'Clear', 'description': 'clear sky', 'icon': '01n'}]",stations,10000.0,1627737604.0,32400.0,1835848.0,Seoul,200,126.9778,37.5683,300.53,303.52,299.84,301.81,1000.0,78.0,1.54,270.0,,0.0,1.0,8105.0,KR,1627677292.0,1627728116.0,,,,
"[{'id': 803, 'main': 'Clouds', 'description': 'broken clouds', 'icon': '04d'}]",stations,10000.0,1627737604.0,7200.0,2619537.0,Hvide Sande,200,8.1294,56.0045,292.88,292.81,290.47,293.18,998.0,73.0,7.2,290.0,,75.0,1.0,1590.0,DK,1627702181.0,1627760273.0,,,,
"[{'id': 804, 'main': 'Clouds', 'description': 'overcast clouds', 'icon': '04d'}]",stations,10000.0,1627737605.0,-10800.0,6322927.0,Pontal do Paraná,200,-48.5128,-25.6533,287.09,286.16,286.09,289.38,1032.0,62.0,0.52,75.0,1.0,100.0,2.0,2019884.0,BR,1627725164.0,1627764478.0,,1032.0,1030.0,
"[{'id': 800, 'main': 'Clear', 'description': 'clear sky', 'icon': '01d'}]",stations,10000.0,1627737605.0,7200.0,86049.0,Jalu,200,21.5482,29.0331,314.93,311.67,314.93,314.93,1008.0,9.0,6.7,10.0,7.94,0.0,,,LY,1627703634.0,1627752379.0,,1008.0,1003.0,
"[{'id': 804, 'main': 'Clouds', 'description': 'overcast clouds', 'icon': '04d'}]",stations,10000.0,1627737605.0,25200.0,1509844.0,Boguchany,200,97.4531,58.3814,292.43,292.08,292.43,292.43,1015.0,64.0,1.11,187.0,1.37,100.0,,,RU,1627679921.0,1627739659.0,,1015.0,1000.0,
"[{'id': 800, 'main': 'Clear', 'description': 'clear sky', 'icon': '01d'}]",stations,10000.0,1627737338.0,-10800.0,7647007.0,Bariloche,200,-71.3082,-41.1456,271.01,268.89,271.01,271.01,1030.0,80.0,1.54,140.0,,0.0,1.0,8315.0,AR,1627732400.0,1627768183.0,,,,
"[{'id': 804, 'main': 'Clouds', 'description': 'overcast clouds', 'icon': '04d'}]",stations,10000.0,1627737399.0,7200.0,2986732.0,Ploemeur,200,-3.4333,47.7333,291.59,291.37,291.2,292.01,1014.0,72.0,6.17,270.0,,90.0,1.0,6560.0,FR,1627706972.0,1627761032.0,,,,
"[{'id': 804, 'main': 'Clouds', 'description': 'overcast clouds', 'icon': '04d'}]",stations,10000.0,1627737605.0,-14400.0,3921141.0,Charagua,200,-63.2167,-19.8,288.05,286.2,288.05,288.05,1021.0,23.0,1.61,45.0,3.95,99.0,,,BO,1627728154.0,1627768545.0,,1021.0,926.0,
,,,,,,,404,,,,,,,,,,,,,,,,,,,,,city not found
"[{'id': 804, 'main': 'Clouds', 'description': 'overcast clouds', 'icon': '04d'}]",stations,10000.0,1627737606.0,10800.0,64814.0,Bandarbeyla,200,50.8122,9.4942,302.74,303.9,302.74,302.74,1008.0,52.0,13.15,196.0,16.77,100.0,,,SO,1627698412.0,1627743555.0,,1008.0,1006.0,
"[{'id': 803, 'main': 'Clouds', 'description': 'broken clouds', 'icon': '04d'}]",stations,10000.0,1627737606.0,18000.0,1176048.0,Jati,200,68.2671,24.3539,304.07,308.58,304.07,304.07,999.0,63.0,11.34,255.0,12.62,83.0,,,PK,1627692899.0,1627740689.0,,999.0,998.0,
,,,,,,,404,,,,,,,,,,,,,,,,,,,,,city not found
"[{'id': 804, 'main': 'Clouds', 'description': 'overcast clouds', 'icon': '04n'}]",stations,10000.0,1627737606.0,43200.0,2181997.0,Takaka,200,172.8,-40.85,284.01,283.19,282.02,284.02,1013.0,78.0,1.81,231.0,1.66,100.0,2.0,2002166.0,NZ,1627760153.0,1627796056.0,,1013.0,1012.0,
"[{'id': 804, 'main': 'Clouds', 'description': 'overcast clouds', 'icon': '04d'}]",stations,10000.0,1627737606.0,25200.0,1516048.0,Khovd,200,91.6419,48.0056,289.06,288.38,289.06,289.06,1012.0,64.0,2.61,68.0,3.53,100.0,,,MN,1627684080.0,1627738289.0,,1012.0,861.0,
"[{'id': 803, 'main': 'Clouds', 'description': 'broken clouds', 'icon': '04d'}]",stations,10000.0,1627737606.0,-14400.0,3664980.0,Boa Vista,200,-60.6733,2.8197,298.14,298.99,298.14,298.14,1018.0,88.0,3.6,230.0,,75.0,1.0,8340.0,BR,1627725707.0,1627769772.0,,,,
"[{'id': 802, 'main': 'Clouds', 'description': 'scattered clouds', 'icon': '03d'}]",stations,10000.0,1627737607.0,7200.0,899825.0,Petauke,200,31.3253,-14.2426,295.77,295.13,295.77,295.77,1021.0,40.0,5.45,125.0,6.3,35.0,,,ZM,1627704994.0,1627746326.0,,1021.0,909.0,
"[{'id': 500, 'main': 'Rain', 'description': 'light rain', 'icon': '10d'}]",stations,10000.0,1627737607.0,10800.0,1060007.0,Marolambo,200,48.1167,-20.05,291.01,291.04,291.01,291.01,1026.0,84.0,1.69,135.0,4.59,99.0,,,MG,1627701464.0,1627741796.0,0.18,1026.0,976.0,
"[{'id': 802, 'main': 'Clouds', 'description': 'scattered clouds', 'icon': '03n'}]",stations,10000.0,1627737607.0,32400.0,1651810.0,Airai,200,125.4092,-8.9266,288.44,288.45,288.44,288.44,1016.0,93.0,1.1,116.0,1.67,44.0,,,TL,1627681983.0,1627724179.0,,1016.0,860.0,
"[{'id': 500, 'main': 'Rain', 'description': 'light rain', 'icon': '10n'}]",stations,10000.0,1627737332.0,28800.0,1803300.0,Liuzhou,200,109.3892,24.3126,301.96,307.78,301.96,301.96,999.0,82.0,2.32,225.0,3.19,100.0,,,CN,1627683031.0,1627730820.0,1.0,999.0,989.0,
"[{'id': 804, 'main': 'Clouds', 'description': 'overcast clouds', 'icon': '04d'}]",stations,10000.0,1627737607.0,10800.0,187896.0,Mandera,200,41.867,3.9366,306.15,304.88,306.15,306.15,1012.0,28.0,9.61,206.0,10.78,100.0,,,KE,1627701008.0,1627745253.0,,1012.0,987.0,
"[{'id': 800, 'main': 'Clear', 'description': 'clear sky', 'icon': '01n'}]",stations,10000.0,1627737607.0,28800.0,1809263.0,Guozhen,200,107.359,34.3659,303.98,303.33,303.98,303.98,997.0,36.0,2.15,185.0,3.91,0.0,,,CN,1627682416.0,1627732409.0,,997.0,938.0,
"[{'id': 800, 'main': 'Clear', 'description': 'clear sky', 'icon': '01d'}]",stations,10000.0,1627737607.0,7200.0,2219235.0,Ubari,200,12.7805,26.5921,311.52,308.47,311.52,311.52,1011.0,9.0,4.38,67.0,4.37,0.0,,,LY,1627705996.0,1627754226.0,,1011.0,961.0,
